Time,x,y,yaw,v,acc,steer,Lat,Long,Alt,Roll,Pitch,Yaw,AngVel
64.205421721,-79.40849273332873,163.43100312962054,87.36373156644048,4.962479591369629,-0.042985913574496125,0.005098876258326612,0.0014826440453532541,-0.0006950376628310198,2.0420918464660645,-0.0011901854304596782,0.0004576226347126066,86.44512176513673,-0.009174084290862083
64.305421723,-78.24596250870155,163.36061838071333,86.1966793570365,4.962479114532471,-0.042188869332814266,0.005037131612728729,0.0014870924440941735,-0.0006947430950292661,2.0420920848846436,-0.001190185546875,0.00045762263471260683,86.39330291748047,-0.00898490846157074
64.355421723,-78.76577420837327,164.75241126786838,86.54974128042886,4.9624762535095215,-0.04200224150041709,0.0049480336527750746,0.001491540568665073,-0.0006944448262825859,2.0420920848846436,-0.001190185663290322,0.00045762263471260683,86.36773681640626,-0.008901168592274189
64.605421727,-76.60901044760658,166.86662942311278,85.25285038304838,4.962474346160889,-0.04285038048297724,0.004839452714380743,0.0015004351729714926,-0.0006938371859544453,2.0420920848846436,-0.001190185546875,0.00045762263471260683,86.21728515625,-0.008692282252013683
64.755421729,-77.77023741111321,166.4184643593887,88.01668384152711,4.9624738693237305,-0.04181784475294011,0.004802107020379698,0.0015093296402142187,-0.0006932144677025295,2.0420923233032227,-0.001190185546875,0.0004576226347126067,86.16768646240234,-0.008631107397377491
64.855421731,-76.14785930977291,167.27743717451156,84.55241736867147,4.9624738693237305,-0.04095889294279693,0.0047652767611292,0.0015115528115359211,-0.0006930564236469586,2.0420920848846436,-0.0011901854304596786,0.00045762263471260683,86.11870574951175,-0.00849142111837864
64.905421732,-76.40740691761418,165.28605871130856,86.79767506805916,4.962474346160889,-0.0401653505699952,0.0047201642732931925,0.001515999154179326,-0.0006927378682391989,2.0420920848846436,-0.0011901854304596786,0.0004576226347126066,86.04759979248048,-0.008097649551928043
64.955421732,-77.51558188114117,166.86549108092794,88.86160298022214,4.962474346160889,-0.03880442577047703,0.004655188773447672,0.0015204452226811327,-0.0006924161601746499,2.0420923233032227,-0.0011901856632903216,0.0004576226347126066,86.02481079101564,-0.00791898462921381
65.005421733,-77.34109499445472,168.43461599296512,84.57395341909474,4.962474822998047,-0.03785614727289946,0.004585611909074083,0.0015226683940028352,-0.0006922541410300837,2.0420923233032227,-0.0011596679687500002,0.0004576226347126066,86.00262451171875,-0.0077056982554495335
65.305421738,-78.75336319425799,167.5837566810141,86.21171566148021,4.962480068206787,-0.02679731380594158,0.0038195916707061683,0.0015315605310206593,-0.0006915999647462915,2.0420920848846436,-0.0010375974234193566,0.0004576226347126066,85.9211654663086,-0.006601482629776001
65.405421739,-77.24270544552577,170.52184088790594,85.33868657039599,4.96248197555542,-0.015879523861562946,0.0031152270431254736,0.0015360059141613647,-0.0006912700323596832,2.0420918464660645,-0.0009765624417923395,0.0004576226347126066,85.8866195678711,-0.00569069292396307
65.605421742,-77.73336512080864,170.48277905188823,85.02792487420265,4.962480545043945,-0.02624461121821341,0.0029016023799808832,0.001544896406315388,-0.0006906066722495917,2.0420923233032227,-0.0009765625000000002,0.0004576226347126066,85.82583618164064,-0.005452199373394251
65.655421743,-76.60421592485402,170.56317456011598,87.52098640568998,4.962479114532471,-0.03292303454538493,0.00306095477912921,0.0015493419265197872,-0.0006902712569816106,2.0420918464660645,-0.0010070799617096782,0.0004576226347126067,85.80980682373045,-0.005630276631563902
65.755421744,-77.9456941737703,172.32176026795017,85.98354633990857,4.962472438812256,-0.04092149340452541,0.003630541468673365,0.0015515645495440822,-0.0006901020415552426,2.0420923233032227,-0.0010681151179596784,0.0004576226347126067,85.77425384521486,-0.006456076167523861
65.855421746,-77.52862301105914,173.69193422484054,85.40004081331189,4.96246862411499,-0.054987032389524175,0.004103416441898988,0.0015560092473378972,-0.0006897603895097,2.0420920848846436,-0.0011596678523346784,0.0004576226347126066,85.73250579833983,-0.007586913648992777
65.905421746,-77.03033721924494,171.65350352755146,86.33628401113538,4.962467193603516,-0.04760959688484156,0.004263930275973632,0.0015582314591426893,-0.0006895874731384053,2.0420920848846436,-0.001190185546875,0.00045762263471260683,85.71002197265626,-0.007913365960121155
65.955421747,-76.21867757783986,172.29001948833232,85.75889294568303,4.962466239929199,-0.047946412149988404,0.004441679030633777,0.001560453670990114,-0.0006894133916548189,2.0420920848846436,-0.0011901854304596786,0.0004576226347126066,85.68712615966798,-0.008007511496543884
66.005421748,-75.51728148938608,173.12250460126353,85.73401665049761,4.962465763092041,-0.042630774805347264,0.004469036327377246,0.0015626756086533078,-0.0006892382821309752,2.0420923233032227,-0.001190185663290322,0.0004576226347126066,85.66358184814453,-0.008264747448265553
66.105421749,-77.98144485037169,173.54580383849566,86.59697697838799,4.962463855743408,-0.054853763075441424,0.004908970980763927,0.0015671197581497154,-0.0006888844992103952,2.0420918464660645,-0.0013427732046693563,0.00045762263471260645,85.60991668701172,-0.010445007123053074
66.15542175,-75.27504068779074,171.3887214562986,86.55657369274581,4.962456226348877,-0.09416218072595481,0.006004805741279151,0.0015693411475297125,-0.0006887045921653502,2.0420918464660645,-0.0014953610952943568,0.0004576226347126069,85.57615661621095,-0.012124993838369846
66.505421755,-77.0432197688432,174.89533701348157,84.81553661029302,4.962001323699951,-0.4485204191905379,0.02579263027106582,0.0015848799074689168,-0.0006872987128453472,2.0420923233032227,-0.0048828120343387136,0.0004576226347126072,84.9836654663086,-0.05439438298344612
66.605421757,-75.07806076838875,176.10765811867438,83.76396043099922,4.961169242858887,-0.6644550728080444,0.043296059364676065,0.0015893095273327162,-0.0006867973033438047,2.0420920848846436,-0.006469726562500001,0.0004917735932394869,84.60176849365236,-0.07451866567134857
66.705421758,-76.71640177405446,175.5736538613931,85.06756193611855,4.960714340209961,-0.756039267053883,0.050646841602518755,0.0015937306487359137,-0.0006862238624882269,2.042091131210327,-0.0081787109375,0.0005532453069463372,84.08836364746094,-0.09668105095624924
66.80542176,-76.49544668520541,176.47185271215315,84.07119999054912,4.959794044494629,-0.8613802851625135,0.0633335545709377,0.0015981405302198937,-0.0006855666020836625,2.0420901775360107,-0.009948728606104849,0.0006147170206531866,83.44115447998045,-0.12199369817972183
66.855421761,-75.76354197104156,176.7039504079687,83.3289590919134,4.9591827392578125,-0.9355063327812048,0.07080308478296615,0.0016003398510093803,-0.0006852016477922856,2.0420897006988525,-0.010620116256177429,0.0006420377176254994,83.07112884521487,-0.13104316592216492
66.905421761,-77.01800448337298,175.74166716735732,82.96514530634107,4.958731174468994,-0.8904385455093131,0.07562122774077817,0.0016025354708517625,-0.0006848131171110055,2.0420892238616943,-0.011322020553052425,0.0006761886761523803,82.6696701049805,-0.14252762496471405
67.105421764,-76.13397568880538,179.2214705288834,82.4921527902863,4.956667900085449,-1.0826998846080464,0.09877188967344441,0.0016134370838898349,-0.000682478369150433,2.0420870780944824,-0.013549803756177424,0.0007923019002191727,80.7869644165039,-0.17897860705852509
67.205421766,-76.52631066652432,177.94269792329433,80.85121580920087,4.956185817718506,-1.0010464391699392,0.1050955026172753,0.001615600217647284,-0.0006819340561021484,2.0420873165130615,-0.013977051712572575,0.0007923019002191712,79.72867584228516,-0.18913057446479797
67.305421767,-74.68381034659765,176.60835085483396,79.01442770820977,4.955728530883789,-1.143252832405493,0.11348133700112051,0.0016220497310115434,-0.0006801462255585127,2.0420870780944824,-0.014343262650072576,0.0007923019002191727,78.60791778564452,-0.19699598848819733
67.405421769,-76.16302271620955,178.40750283471596,76.263256244008,4.955968856811523,-1.1238268533977733,0.11872226844208811,0.001624185724509175,-0.0006795010960289857,2.0420873165130615,-0.014587400481104853,0.0007923019002191712,77.44906616210938,-0.20517787337303162
67.50542177,-74.53594039788835,181.35815605349384,76.34102410092122,4.956345081329346,-1.0045321427096154,0.11773844118012455,0.0016305501161468783,-0.0006774210964441968,2.0420873165130615,-0.014465332962572578,0.0007923019002191727,76.27213287353516,-0.20657481253147125
67.555421771,-76.4134626602475,179.62847611125184,75.8848667894182,4.9565558433532715,-1.0740439287861858,0.11928074028756885,0.0016326567762519062,-0.0006766833747554866,2.0420873165130615,-0.014312746003270151,0.0007923019002191712,75.68253326416017,-0.2055981606245041
67.655421773,-74.48370431639025,180.90432745280515,74.51528297085991,4.957219123840332,-1.0654434225817224,0.11959869412132829,0.0016347557602927054,-0.0006759228991090793,2.0420873165130615,-0.014373780228197571,0.0007923019002191735,74.49125671386719,-0.20937445759773254
67.705421773,-75.34280268376618,179.96251802558882,73.12827530625171,4.957793712615967,-0.9906265559307897,0.11943898899641248,0.0016368462459155353,-0.0006751387785367517,2.0420870780944824,-0.014251708984374995,0.0007923019002191727,73.89533233642578,-0.20764939486980438
67.755421774,-76.99187456105871,180.7485964587835,73.48841580596384,4.957967281341553,-1.0685772488789185,0.12064773241292404,0.0016389286442404227,-0.0006743335488711389,2.0420873165130615,-0.014251708984375002,0.0007923019002191735,73.29725646972658,-0.20905284583568573
67.905421776,-75.72853443677306,183.0117658988157,70.94833909394822,4.958460807800293,-0.965745005830729,0.11952556382930357,0.0016451229294602854,-0.00067178442024889,2.0420873165130615,-0.014099122025072576,0.0007923019002191719,71.50010681152344,-0.20823663473129272
67.955421777,-75.1628390161433,181.97742704134106,70.81272010000363,4.958694934844971,-1.0703153240722898,0.12092674532195336,0.0016471703744542765,-0.000670892561057587,2.0420873165130615,-0.014160157181322571,0.0007923019002191727,70.90052795410156,-0.20955999195575714
68.105421779,-75.46532576546562,180.75198281203447,69.34586571900937,4.959131240844727,-1.0483429434386407,0.11974779471671848,0.001653255687415367,-0.0006680908086760863,2.0420873165130615,-0.013793944381177425,0.0007923019002191758,68.5319595336914,-0.20450110733509064
68.205421781,-75.0182711021415,183.45316161264356,67.01807162661245,4.959403038024902,-0.937640804294388,0.1173574245304394,0.0016592543708355834,-0.0006651066134169056,2.0420873165130615,-0.013763425871729847,0.0007923019002191719,67.94461822509764,-0.20517107844352722
68.455421784,-73.93119512240601,185.12314158249958,66.23162960887764,4.959547996520996,-0.9298632051648715,0.11601660238138134,0.0016671061311086532,-0.000660847237022446,2.0420870780944824,-0.013641357421875002,0.0007923019002191735,65.0163803100586,-0.2022232562303543
68.555421786,-74.55754285097686,185.64462003155566,65.11783237708232,4.959534645080566,-0.9968797109122148,0.11632529887048193,0.0016709674503090355,-0.000658602202708336,2.0420870780944824,-0.013610838912427427,0.0007923019002191727,63.85651397705079,-0.2028837651014328
68.605421787,-74.79439919369533,182.72977404406507,63.74271064554552,4.959452152252197,-1.0231231494760626,0.1168703261750963,0.0016728807017614145,-0.0006574505234759794,2.0420870780944824,-0.013458251953125002,0.0007923019002191735,63.282001495361335,-0.19995354115962982
68.755421789,-75.04311578873029,184.7599632285812,60.62364299161308,4.959396839141846,-1.0354738218013713,0.11650787883033153,0.0016785524684053144,-0.0006538849371832305,2.0420873165130615,-0.01348876953125,0.0007923019002191735,61.554931640625014,-0.19992364943027496
69.005421793,-71.79459236935303,185.19641629034808,60.79629216385904,4.959386348724365,-0.9945776513258858,0.11476727957205846,0.0016877598710891561,-0.0006475711936744001,2.0420870780944824,-0.013488770462572576,0.0007923019002191727,58.687057495117195,-0.20043526589870453
69.055421793,-72.5387718149274,186.15574296451268,59.4783129605166,4.959446430206299,-0.9147474800657573,0.11335307225816305,0.0016895629166242543,-0.0006462537258165335,2.0420870780944824,-0.013336180709302425,0.0007923019002191727,58.11911392211915,-0.1976698935031891
69.205421796,-72.23770613889504,186.36477836588944,57.248611041401496,4.95927095413208,-1.0356252580595473,0.11523399720499139,0.0016966448803543699,-0.0006408121716620811,2.0420870780944824,-0.013336180709302425,0.0007923019002191727,56.412460327148445,-0.19775471091270447
69.255421796,-71.74261903566527,187.61517568520648,56.51895151965089,4.959335803985596,-0.9951639378688039,0.11414142117543769,0.0016983813088842226,-0.0006394084854946272,2.0420870780944824,-0.013336179777979849,0.0007923019002191727,55.84461593627929,-0.19832324981689453
69.405421799,-70.69614933745123,188.93681294864479,56.12685772455136,4.959393501281738,-0.9248418387549848,0.11297585139286603,0.0017018120848177887,-0.0006365497796828666,2.0420870780944824,-0.013275144621729853,0.0007923019002191727,54.14346694946288,-0.1976395845413208
69.555421801,-70.17854699149231,188.12128069506346,52.53913773038911,4.959349632263184,-0.9839972869424533,0.1133888181701348,0.0017068516752374308,-0.0006321366770019171,2.0420870780944824,-0.013275145553052427,0.0007923019002191727,52.44469070434571,-0.1970953345298767
69.605421802,-69.6500649150733,188.78729580380855,50.614524857305256,4.959243297576904,-1.0201493352703148,0.11439911579421036,0.001708502296665415,-0.0006306333394655126,2.0420870780944824,-0.013366698287427424,0.0007923019002191712,51.87675094604492,-0.19856926798820496
69.755421804,-71.17109381268354,190.41635669649986,51.46565369352145,4.959342956542969,-0.9935576233281028,0.11335359110638876,0.0017133643787872188,-0.0006260260057119317,2.0420868396759033,-0.013336181640625,0.0007923019002191719,50.18257141113281,-0.1982649713754654
69.955421807,-69.00416088428787,190.13337707655128,47.72726153693103,4.959280490875244,-1.011372800039032,0.11380043776253679,0.0017196322717154544,-0.0006196642184550721,2.0420873165130615,-0.013153075240552429,0.0007923019002191735,47.932445526123054,-0.19512085616588593
70.005421808,-71.17050888887641,190.05298298269983,50.434086360085274,4.959407329559326,-0.9805371809017063,0.11255338150072625,0.00172116076196005,-0.0006180364880475222,2.0420873165130615,-0.01312255673110485,0.0007923019002191727,47.37220001220703,-0.19565729796886444
70.105421809,-69.7274736763917,190.86860134738478,45.6787793445999,4.959432601928711,-0.9207628124826782,0.11188006214535307,0.0017256487745100912,-0.0006130642685385815,2.0420870780944824,-0.013122557662427425,0.0007923019002191727,46.248691558837905,-0.19503161311149597
70.205421811,-68.71384726472229,191.5608087273966,45.417531497030005,4.95939826965332,-0.9811443379795344,0.11251061748380664,0.0017285589508730936,-0.0006096770814985001,2.0420870780944824,-0.013214110396802424,0.0007923019002191719,45.125896453857415,-0.19671238958835602
70.405421814,-68.98998855395774,193.12914379221476,41.20346986287057,4.95933723449707,-1.0045174872778957,0.1129732298439361,0.0017327999595977417,-0.0006044927430164492,2.0420870780944824,-0.0130615234375,0.0007923019002191719,42.89197540283204,-0.19373419880867004
70.505421815,-65.74902492018506,193.57447186468576,42.673208597554705,4.95944881439209,-0.9783061182838114,0.11184315110052356,0.0017368888183995068,-0.0005991876440721625,2.0420873165130615,-0.013153075240552425,0.0007923019002191712,41.77515411376953,-0.19588738679885864
70.605421817,-68.06043731502201,191.14287643671526,40.79080167410657,4.959466934204102,-0.9128400363675159,0.11114336138303837,0.0017382175946778489,-0.0005973932340708794,2.0420870780944824,-0.013061524368822571,0.0007923019002191719,40.66186523437499,-0.1945379674434662
70.705421818,-68.37148990774232,192.53021429984958,42.832922457627916,4.959439754486084,-0.9148004272218144,0.11116726481182315,0.0017420964590968424,-0.0005919329010477252,2.0420870780944824,-0.013061522506177425,0.0007923019002191716,39.54512405395507,-0.1938294619321823
70.805421819,-66.78478823697391,192.88872570536503,40.387160360849926,4.959290981292725,-1.0069464831064412,0.11283248543576008,0.0017433542320901552,-0.0005900881856098467,2.0420873165130615,-0.013153075240552429,0.0007923019002191716,38.427772521972656,-0.19593727588653564
70.955421822,-68.45582429710215,193.28780825515148,37.35875675965933,4.95925760269165,-0.9881125568517092,0.11268226522051439,0.0017470144666305032,-0.0005844784440692838,2.0420868396759033,-0.013153076171875002,0.0007923019002191716,36.742759704589844,-0.19581522047519684
71.055421823,-66.15083812214095,193.60505446926632,35.461991306749184,4.959167003631592,-1.0090449592068174,0.11350835351925959,0.0017505080215727276,-0.0005787637053504316,2.0420870780944824,-0.013122557662427424,0.0007923019002191735,35.61914062500001,-0.1949254274368286
71.105421824,-63.86374520588015,195.7659257055744,34.49946630647897,4.9593071937561035,-0.9158347113334133,0.11179778373987492,0.0017516355761131308,-0.0005768365410839097,2.0420870780944824,-0.013122556731104853,0.0007923019002191719,35.05923843383789,-0.19558677077293396
71.205421825,-64.0151194051125,195.85717286087845,35.5378095390891,4.95933723449707,-0.9196328656670376,0.11172889525966045,0.0017527433923021363,-0.0005748979998385392,2.0420870780944824,-0.013122556731104853,0.0007923019002191727,33.93721008300782,-0.19477050006389618
71.455421829,-65.17494466590945,195.22661389935152,32.62257419041,4.959361553192139,-0.9762854151935648,0.11215540670640056,0.001757999282375522,-0.0005650501623368448,2.0420870780944824,-0.013183592818677427,0.0007923019002191719,31.136211395263672,-0.196385458111763
71.555421831,-62.56194013376297,194.1464295778408,30.717227017342374,4.959414482116699,-0.9133582337669166,0.11139544879993313,0.0017599659919369515,-0.0005610410794770536,2.0420868396759033,-0.01309203915297985,0.0007923019002191723,30.02060890197754,-0.1948779970407486
71.605421831,-63.19855931301929,196.1730332442918,32.05742661035599,4.959384918212891,-0.9795035633067416,0.11210358560203204,0.0017609204245161436,-0.0005590226937716917,2.0420870780944824,-0.013183593750000003,0.0007923019002191719,29.45962524414062,-0.1960711032152176
71.655421832,-64.27805354032628,197.82162037210585,31.32807443500222,4.959306240081787,-1.0013919108148543,0.11288101139876527,0.001762769115018159,-0.0005549578911299494,2.0420873165130615,-0.013092040084302427,0.0007923019002191723,28.902189254760746,-0.19418349862098694
71.805421834,-63.30786656585179,194.84430004495908,29.082808819628124,4.959287166595459,-1.0049106179176919,0.11301881566699556,0.0017645378925692512,-0.0005508576553673354,2.0420870780944824,-0.013092039152979846,0.0007923019002191723,27.224411010742184,-0.19438448548316956
71.905421836,-61.07839743588868,194.50797865595257,26.661302419662185,4.959368705749512,-0.9786937772563461,0.11214294524638291,0.0017662273053815625,-0.0005467241796363988,2.0420873165130615,-0.01318359375,0.0007923019002191727,26.10493087768555,-0.19615569710731506
72.005421837,-60.9863392245776,196.52223128731686,25.760728912735047,4.959171772003174,-1.0160960125866572,0.11381259883673955,0.0017678321447789358,-0.0005425572925970967,2.0420870780944824,-0.013214110396802424,0.0007923019002191716,24.97842979431152,-0.19547614455223083
72.105421839,-59.72954374387123,195.6005285739241,25.643423874583036,4.9591779708862305,-1.0078752461298381,0.1136001441422092,0.0017693565228569241,-0.0005383599070301583,2.0420873165130615,-0.013244627043604846,0.0007923019002191727,23.852611541748043,-0.19727376103401184
72.305421842,-59.12622717106155,197.67634857709618,21.94282336879811,4.95920991897583,-1.002648914780869,0.11342266163861225,0.0017721551225804433,-0.000529879191730763,2.0420873165130615,-0.013122559525072573,0.0007923019002191721,21.607198715209957,-0.19497159123420715
72.405421843,-60.51274876308179,197.2026954573871,20.048895042429976,4.9592719078063965,-0.9979027111391009,0.11307839218694848,0.0017734307149339656,-0.0005255998028192928,2.0420870780944824,-0.013183593750000002,0.0007923019002191723,20.48531723022461,-0.1964462399482727
72.555421846,-57.786762691647276,196.94569865596333,19.827355530503787,4.959299087524414,-1.0026532455046966,0.11302694428919846,0.0017751867447657332,-0.0005191359997008905,2.0420870780944824,-0.013183593750000003,0.0007923019002191723,18.806615829467773,-0.19631658494472504
72.705421848,-57.16403347441909,197.63737979351214,16.30131223755398,4.959384918212891,-0.9787297393721986,0.11221146962257933,0.0017767530668777454,-0.0005126236045463218,2.0420870780944824,-0.013183592818677427,0.0007923019002191717,17.12882804870605,-0.19601105153560638
72.805421849,-58.55410958211067,197.56891950702214,16.701036365594085,4.9594407081604,-0.9182315673069542,0.11135039092769983,0.001778128721824146,-0.0005060683743810281,2.0420870780944824,-0.013092041015625,0.0007923019002191723,16.013963699340817,-0.19482876360416412
72.85542185,-57.56405617510271,199.53384212777422,16.74265687117754,4.959399700164795,-0.9812944764019572,0.11208330500822683,0.0017785439130193481,-0.0005038746050077537,2.0420873165130615,-0.013183592818677429,0.0007923019002191723,15.453266143798828,-0.19597725570201874
72.905421851,-56.65680460546145,196.86058435227068,14.573328604499636,4.959319114685059,-1.000020734787015,0.11281974179512844,0.0017789364873266322,-0.0005016765178653983,2.0420870780944824,-0.0133056640625,0.0007923019002191721,14.888722419738764,-0.19736674427986145
73.105421854,-57.08250851216783,198.35952159310418,12.581431793272387,4.959206581115723,-1.0030948030512092,0.11342972525656236,0.0017799863220346879,-0.000495061284417081,2.0420868396759033,-0.013153075240552429,0.0007923019002191725,12.642383575439453,-0.19531556963920593
73.155421855,-54.260967215015654,198.344978180182,13.473313606387919,4.959287166595459,-0.9828039964396673,0.11268150060207649,0.0017802933634101237,-0.0004928497642153622,2.0420873165130615,-0.013153075240552427,0.0007923019002191723,12.081622123718262,-0.19586573541164398
73.205421855,-56.172266469420755,199.6774320939222,12.000776643279625,4.959217548370361,-1.002601546876547,0.11337863236022994,0.0017808412403041984,-0.0004884180882737624,2.0420870780944824,-0.013214110396802425,0.000792301900219172,11.51811408996582,-0.19693230092525482
73.355421857,-53.3438466337574,198.69262655437248,11.658287238711996,4.959486484527588,-0.9062114991701733,0.11073796796934499,0.0017815068621302999,-0.0004817533718210556,2.0420870780944824,-0.012908934615552427,0.0007923019002191721,9.84937858581543,-0.19352039694786072
73.405421858,-55.236539524456916,198.75813875073192,8.868428494402341,4.9594879150390625,-0.9661871673217652,0.11126778482860544,0.0017816882084105146,-0.0004795280073438705,2.0420873165130615,-0.012786865234375002,0.0007923019002191723,9.300000190734862,-0.19132721424102783
73.50542186,-53.57085495790972,198.75894286593598,9.45816350375519,4.9597039222717285,-0.9344939651153304,0.10963656241735364,0.0017818489939003257,-0.00047730110080629925,2.0420870780944824,-0.01269531063735485,0.000792301900219172,8.206887245178223,-0.19046635925769806
73.605421861,-53.41235092638022,197.22555431111533,7.635524928338105,4.959945201873779,-0.8606589568009213,0.1073749849248582,0.0017821097049335322,-0.0004728435525182216,2.0420870780944824,-0.012237546034157274,0.0007923019002191722,7.137793540954589,-0.18430136144161224
73.655421862,-53.649344880444,198.51465753480403,6.390257307919733,4.960177421569824,-0.8300726346403389,0.10535550929656257,0.00178221305722559,-0.0004706132877158095,2.0420870780944824,-0.012054441496729853,0.0007923019002191723,6.613987922668458,-0.18246141076087952
73.755421863,-53.93134704645145,198.86595679818845,6.307214719348626,4.960451126098633,-0.8507004541328694,0.1034278515990179,0.001782364658907909,-0.00046615090763852204,2.0420868396759033,-0.011749266646802429,0.0007923019002191723,5.584018230438233,-0.1778429001569748
73.805421864,-52.67856831376334,197.21797503084863,6.967836877373184,4.96075439453125,-0.8210578927739605,0.10055094741862369,0.0017824138677582368,-0.00046391896370368956,2.0420868396759033,-0.011596679687499998,0.0007923019002191722,5.078951358795165,-0.17590180039405823
74.005421867,-51.970833994310674,197.77605167717942,2.6920959561767446,4.961033344268799,-0.8104982772447124,0.09722484811116505,0.0017824364846603657,-0.0004549900571200765,2.0420868396759033,-0.011169432662427425,0.0007923019002191721,3.1149601936340328,-0.16929344832897186
74.20542187,-50.1270243433627,198.1760151944475,3.092758129439494,4.960912227630615,-0.7974718115983834,0.09549795736917144,0.0017820631004354937,-0.00044383633434741555,2.0420868396759033,-0.011047362349927427,0.0007923019002191721,1.193817377090454,-0.16523732244968414
74.305421872,-48.96562164618549,197.97733060262104,1.5623229759923571,4.961061477661133,-0.7122187085957883,0.09197246559882988,0.0017817995108941886,-0.0004393803966557412,2.0420868396759033,-0.010467529296875,0.0007923019002191725,0.2752074897289276,-0.1573915183544159
74.405421873,-48.64383812077898,198.73619582530537,-1.428979454525516,4.961859226226807,-0.5390699648119655,0.08131403047334285,0.0017816491428703785,-0.0004371537642622386,2.0420868396759033,-0.0093994140625,0.0007649811450392007,-0.5778874158859254,-0.14409305155277252
74.505421875,-48.896866277966026,197.25269839932338,-0.12473343670672443,4.9627156257629395,-0.37501326536101665,0.06993083719733306,0.0017811497894655304,-0.0004304782533868291,2.042088031768799,-0.007873534224927425,0.0007035094313323497,-1.3328880071640012,-0.12505002319812775
74.655421877,-46.31801004354933,198.502757152489,-2.081743445721173,4.963586807250977,-0.20919702768731605,0.056171364560542614,0.0017808001187091804,-0.000426029957461068,2.0420892238616943,-0.0050048823468387136,0.0006147170206531883,-2.220950841903687,-0.08777376264333725
74.705421878,-47.19901302204913,198.93413398768686,-2.6917502097664396,4.963974952697754,-0.08233404607795151,0.047981236086397594,0.001780627545016955,-0.0004238059637042261,2.0420897006988525,-0.0040588374249637136,0.0005805660621263087,-2.4447317123413086,-0.07561050355434418
74.905421881,-46.31611958358959,196.98246149356254,-1.6807009245404572,4.9645843505859375,-0.18345680399388406,0.018150749146444767,0.00177984541198839,-0.0004126822939750898,2.0420897006988525,-0.00048828124999999984,0.0005805660621263086,-2.963053703308106,-0.025063494220376015
74.955421881,-45.77879769515253,196.78810220905063,-1.9449956788626723,4.964507102966309,-0.14384729127637694,0.012881472207672218,0.0017797131374805986,-0.00041045648401379314,2.0420901775360107,0.0002616268466226756,0.0005805660621263085,-3.0070185661315914,-0.012817605398595333
75.005421882,-48.33411008777587,196.07884215211587,-1.2290111930121104,4.964348793029785,-0.25159736018100737,0.005801205601337678,0.0017795881277749004,-0.00040823026283639353,2.0420899391174316,0.0007467117975465954,0.0005805660621263087,-3.0263669490814213,-0.005177023820579052
75.205421885,-44.664384742962824,197.59742762109911,-2.464285807113715,4.963151931762695,-0.1729723774100911,-0.011406668882573356,0.001779169921007906,-0.0003993222254700057,2.0420899391174316,0.0019288444891572,0.0005805660621263085,-2.8914480209350586,0.019940698519349098
75.305421887,-45.6528663871533,199.30059820124117,-0.5578679690154389,4.962751388549805,-0.12154155066834771,-0.013611391532650785,0.0017790819207590403,-0.0003970947363762886,2.0420897006988525,0.0019102904479950669,0.0005805660621263087,-2.753251314163208,0.02443285845220089
75.405421888,-44.802899778505136,197.06292638487244,-3.5211465021109865,4.962466239929199,-0.10614138962769992,-0.014778608885904099,0.0017789194904054284,-0.00039263948404478577,2.0420901775360107,0.001751460717059672,0.0005805660621263085,-2.597905397415161,0.026704678311944008
75.455421889,-45.31514928592158,198.69371776628293,-2.956552699179939,4.962352275848389,-0.19457240747628576,-0.016352748889726598,0.0017788441007837719,-0.00039041172080700004,2.0420899391174316,0.0017202225280925634,0.0005805660621263086,-2.516535520553589,0.028843408450484276
75.55542189,-42.769808814111016,198.0506943120074,-2.094360421880006,4.962292671203613,-0.1176958818963162,-0.015477811485660187,0.0017787046985091592,-0.0003859558859193514,2.0420901775360107,0.001610934385098517,0.0005805660621263086,-2.351396322250366,0.029995478689670563
75.605421891,-42.62539501844035,196.2544790951106,-2.5410724213541602,4.962221622467041,-0.19935669702120762,-0.016997008193159413,0.0017786408229483186,-0.0003837278828055056,2.0420899391174316,0.0014947380404919386,0.0005805660621263086,-2.2686953544616704,0.028577905148267746
75.655421892,-44.37784113955673,198.1921846169001,-0.7084989795815291,4.962205410003662,-0.10988254508464136,-0.015815804694312874,0.0017785233522289445,-0.0003792715681657368,2.0420899391174316,0.001507473993115127,0.0005805660621263086,-2.1834557056427,0.03005891852080822
75.705421893,-42.743157046636156,199.51334259443308,-2.452037651438138,4.962174892425537,-0.1838960918540665,-0.0169636881242079,0.001778471813125293,-0.00037704322237180524,2.0420901775360107,0.0016403291374444957,0.0005805660621263087,-2.0922396183013916,0.03230243921279907
75.805421894,-41.73503284656378,198.66109554912398,-0.7283784835974734,4.962176322937012,-0.08600236517392684,-0.016282772648758215,0.0017783759997769266,-0.0003725864279799163,2.0420899391174316,0.0014412791933864353,0.0005805660621263087,-1.9197026491165161,0.030132710933685303
76.255421901,-40.34121891653816,198.02525738267127,-1.0380884554271308,4.962484836578369,-0.015986905764119812,-0.009238880033826558,0.0017780555253636976,-0.0003547577083519746,2.0420897006988525,0.00039873545756563533,0.0005805660621263086,-1.3318940401077268,0.01711767539381981
76.355421902,-39.37336145529682,197.66242930721944,-1.8358749370671095,4.962489604949951,-0.11011701271018956,-0.010203123050919416,0.0017779876746999435,-0.00035030029713593126,2.0420899391174316,0.00030618743039667606,0.0005805660621263086,-1.2345875501632688,0.015540525317192078
76.455421904,-39.00558843965948,198.95994084036266,-1.5669813887527562,4.962512969970703,-0.07834603340180328,-0.008762372554108389,0.0017779232508559062,-0.00034584278311586216,2.0420901775360107,0.00014267180813476443,0.0005805660621263086,-1.150672793388367,0.013102558441460133
76.605421906,-39.38060846634035,197.7998521488095,-0.6434338892585183,4.962528228759766,-0.003848373155319838,-0.0060361482702826486,0.001777801667969925,-0.0003369277208077154,2.0420901775360107,6.137934542493896e-05,0.0005805660621263086,-1.04317307472229,0.012246164493262768
76.655421907,-38.80385650165546,197.46514158568687,-1.4932557040039458,4.962510585784912,-0.09417159748343479,-0.007579566997582443,0.001777774801837495,-0.0003346988952616637,2.0420899391174316,9.242950909538195e-05,0.0005805660621263087,-0.9724054336547853,0.0110862972214818
76.805421909,-37.45492470803109,196.1492645697487,-1.52830391344216,4.962506294250488,-0.06100769657497985,-0.006367546644908462,0.0017777224403090486,-0.00033024131270557747,2.0420899391174316,-6.103515261202121e-05,0.0005805660621263087,-0.9127306938171388,0.009035315364599228
76.85542191,-37.60310628525323,197.2310731419499,1.1616218321692586,4.962507724761963,-0.01210958249240867,-0.0047793340207884505,0.0017776704900143159,-0.0003257837301494912,2.0420899391174316,-0.00021362301777116954,0.0005805660621263087,-0.8647145032882693,0.007031956221908331
76.955421911,-37.98158165587855,198.37023144334574,-0.7729129860637826,4.962497234344482,-0.05357502668730367,-0.004407360804651539,0.001777592084820867,-0.00031909732204735326,2.0420899391174316,-0.00033569333027116965,0.0005805660621263088,-0.8259090185165406,0.005447260569781065
77.055421913,-34.464664022099505,197.90977138518042,-0.7879826547093491,4.962496757507324,-0.02919863873653048,-0.002781017387241569,0.001777566041127443,-0.00031686846223329297,2.0420897006988525,-0.0003356933302711697,0.0005805660621263087,-0.8088765740394592,0.006073335651308298
77.155421914,-37.38472982868104,198.0451330818024,-0.2657708516431101,4.96248722076416,-0.04852526533139187,-0.0029931990037583844,0.0017775394491650331,-0.0003146396709552498,2.0420899391174316,-0.00036621093750000005,0.0005805660621263086,-0.7816672921180725,0.005177138838917017
77.305421916,-38.10127080298105,197.44829307205936,-0.8870034463604277,4.962481498718262,-0.031934112133580994,-0.0012100860500781074,0.0017774618663821684,-0.0003079532285851033,2.0420897006988525,-0.0004882812208961696,0.0005805660621263086,-0.7503210306167603,0.0025359520222991705
77.455421919,-34.58460179241447,198.16660720230692,-0.865250530830469,4.962477207183838,-0.03412658886221058,-0.0007154689467623321,0.0017773830499692167,-0.00030126678621495676,2.0420897006988525,-0.0005493164062499999,0.0005805660621263085,-0.7293354272842406,0.0022497009485960007
77.505421919,-35.837053838160344,196.22118881199825,0.021592887267376293,4.962475776672363,-0.024204089639431936,-0.001318102058331938,0.0017773295918601661,-0.0002968092036588705,2.0420899391174316,-0.0006103515042923392,0.0005805660621263085,-0.7262232899665831,0.0007863335194997489
77.605421921,-32.26648209468623,197.0922180277938,-1.1886727541742195,4.962474822998047,-0.026269555983115044,-0.0009854247683427353,0.001777302725756158,-0.0002945804123808274,2.0420899391174316,-0.0006408691406249999,0.0005805660621263086,-0.7203859090805053,0.0003318592789582908
77.655421922,-34.938185630865064,197.10252299532198,-1.1235386911406753,4.962475299835205,-0.028827861881900715,-4.684198192173028e-05,0.001777248171094925,-0.0002901228298247412,2.0420897006988525,-0.0006103514460846782,0.0005805660621263087,-0.7173305749893188,0.0012557554291561246
77.705421922,-34.17764578600988,199.06122541001267,0.06089101144422948,4.962475299835205,-0.03511848059915117,0.0002589644315356132,0.0017772204825234894,-0.000287894038546698,2.0420899391174316,-0.0006713867187499999,0.0005805660621263085,-0.7170178890228271,-0.00018670959980227053
77.855421925,-32.11103908882033,197.20317860709653,-0.9472850869496134,4.962475776672363,-0.035105835698926495,0.0004512636930169567,0.0017771651054232507,-0.00028343650739262463,2.0420897006988525,-0.0006408691406249999,0.0005805660621263086,-0.7148631811141968,0.0006436195108108222
77.905421925,-32.218584823678775,197.33533808884263,-1.8295281767816491,4.9624762535095215,-0.030560093853746733,-0.00048579895912870263,0.0017771115102647173,-0.0002789789077025341,2.0420897006988525,-0.0005493163480423391,0.0005805660621263087,-0.7106816172599792,0.0016706889728084207
77.955421926,-32.42475319168032,198.44547427820896,-2.009663370643579,4.962477207183838,-0.02957580624827063,-3.294231103279088e-05,0.001777084644160709,-0.000276750116424491,2.0420899391174316,-0.0006103515042923391,0.0005805660621263086,-0.708971381187439,0.0003201405343133956
78.055421928,-32.03743698332828,197.26431037530725,0.6434113756567108,4.962478160858154,-0.026791716284996027,-3.941653560368685e-05,0.0017770314601932569,-0.00027229251673440043,2.0420897006988525,-0.0006103515042923394,0.0005805660621263086,-0.703727662563324,0.0003057717112824321
78.20542193,-31.84353343247089,196.56294699921656,-4.975598961790615,4.962479114532471,-0.026215690778529074,0.0002168831096498458,0.001776951135994409,-0.0002656061429002711,2.0420899391174316,-0.0005798339261673389,0.0005805660621263086,-0.7000712752342222,0.0006993687711656094
78.305421931,-31.76102849113103,197.1243002984612,-0.5662926023876365,4.9624786376953125,-0.012081185025623681,-8.684791090463051e-05,0.0017769237215645717,-0.00026337735162222794,2.0420899391174316,-0.0006408691406249999,0.0005805660621263087,-0.7009389996528625,5.2092083933530375e-05
78.455421933,-28.149695536221884,197.1738595069458,-1.908197676709002,4.962478160858154,-0.016204768206884476,4.217689919050471e-05,0.0017768405188718361,-0.0002566909949221029,2.0420897006988525,-0.0007324218750000001,0.0005805660621263086,-0.7078772783279419,-0.0015375028597190976
78.505421934,-29.221377759590055,195.54432687046807,-0.032343593538601056,4.96247673034668,-0.038853955413615866,0.000996595934746436,0.0017768120078471838,-0.00025446225504607264,2.0420901775360107,-0.0007019042386673391,0.0005805660621263087,-0.7102762460708618,-0.0006569958059117198
78.555421935,-29.803068876431947,196.06868118286664,-2.083868870822891,4.962477207183838,-0.016618858868703158,0.00027084104947427967,0.0017767834968935858,-0.00025223353230404663,2.0420897006988525,-0.000732421875,0.0005805660621263085,-0.7141947150230408,-0.0015509908553212881
78.605421936,-29.065457204064522,197.91361112903746,-0.3541844409865731,4.9624762535095215,-0.028662573908907852,0.0009587791811720425,0.0017767256525047515,-0.000247776103953999,2.0420897006988525,-0.0007019041804596782,0.0005805660621263086,-0.7173427939414977,-0.000982347410172224
78.655421936,-28.501453788009254,198.92473640388621,-0.34401570104737744,4.962477207183838,-0.033589486130808505,0.001209783388613106,0.0017766960449279168,-0.00024554736407796877,2.0420899391174316,-0.0007629394531250001,0.0005805660621263087,-0.722433030605316,-0.0019815852865576744
78.755421938,-27.15411731393245,196.42081123340782,-0.7522044981157076,4.962478160858154,-0.008130441729341803,0.0006686292404907146,0.0017766665744574084,-0.0002433186413359428,2.0420901775360107,-0.0007629393949173392,0.0005805660621263086,-0.7324922680854797,-0.0022351951338350773
78.805421939,-28.324690013403863,197.40079252199277,0.5380934287411376,4.962478160858154,-0.03255799328730574,0.0013409518611144922,0.0017766058515320537,-0.00023886121298589516,2.0420899391174316,-0.000732421875,0.0005805660621263086,-0.7375046610832214,-0.0016244910657405853
78.855421939,-29.085335629683392,197.59415202858497,-2.1507778311723653,4.962478160858154,-0.03333583273436917,0.0014895813969313387,0.0017765747361835338,-0.0002366324902438692,2.0420899391174316,-0.000762939394917339,0.0005805660621263086,-0.744168519973755,-0.0025069713592529297
78.955421941,-27.081215959733452,198.33231500071156,2.385288828044971,4.962479114532471,-0.006975285945837711,0.0009312620200081501,0.0017765120942527801,-0.00023217506189382155,2.0420899391174316,-0.000762939453125,0.0005805660621263086,-0.7572100758552552,-0.00280435080640018
79.055421942,-26.00310588269143,196.83602799898958,-0.747837451801002,4.962478160858154,-0.0005763819606360375,0.001232589954043517,0.001776447259175029,-0.0002277176506777782,2.0420901775360107,-0.0007934569730423393,0.0005805660621263087,-0.772438406944275,-0.0030564777553081512
79.105421943,-26.00624375829975,196.58343072050909,-0.0676107455095244,4.96247673034668,-0.03290907886313484,0.001780716694111506,0.0017764147731185176,-0.00022548892793575225,2.0420899391174316,-0.000732421875,0.0005805660621263086,-0.7790131568908691,-0.0020986946765333414
79.205421945,-26.277716133062334,197.19923531628527,-1.1407878414536907,4.96247673034668,-0.00217769301496956,0.0011968736255232315,0.0017763488414743733,-0.0002210314995857046,2.0420901775360107,-0.0006713867769576611,0.0005805660621263088,-0.8035038709640503,-0.001988400472328067
79.355421947,-26.779992725216736,197.3900527361272,-1.811940215244904,4.962477684020996,-0.022249519021227786,0.0011660613229960148,0.0017762505608232004,-0.00021434534849363102,2.0420899391174316,-0.0006408691988326607,0.0005805660621263085,-0.8074263334274291,-0.0012092931428924203
79.405421948,-25.554563412836384,198.01261329882757,-0.4142903897295995,4.962479114532471,-0.012511485597051217,0.0005887266137303282,0.001776216978157663,-0.00021211664288560934,2.0420901775360107,-0.000671386660542339,0.0005805660621263085,-0.8123288750648497,-0.0018406490562483668
79.455421948,-25.309585066616908,198.38840480922968,-0.5159495248297248,4.962479114532471,-0.007217264941607626,0.000639553258999559,0.0017761840808816487,-0.00020988792014358336,2.0420901775360107,-0.0006408691406250001,0.0005805660621263087,-0.8162835836410522,-0.0012618104228749871
79.605421951,-25.695941560046784,195.26535631914504,-0.983490464035108,4.962480068206787,-0.022909834296776628,0.0010347107984856052,0.0017761173267984987,-0.00020543050892754002,2.0420901775360107,-0.0006713867187499998,0.0005805660621263085,-0.829375684261322,-0.00174092804081738
79.705421952,-23.622215321718926,198.0617461554376,-1.06983927069186,4.962478160858154,-0.0280125609125551,0.0011718892629348776,0.0017760500244179411,-0.0002009732176495267,2.0420901775360107,-0.0006713866023346781,0.0005805660621263086,-0.8382309079170226,-0.0019564528483897448
79.755421953,-21.471483353533074,197.80438665163143,-1.5815606041182795,4.962478160858154,-0.008267357267573543,0.0006609716778611663,0.0017760157564197243,-0.0001987445463095136,2.0420901775360107,-0.0006408691406249999,0.0005805660621263086,-0.8423694372177124,-0.0013127647107467055
79.805421954,-23.511717961703912,197.38645757378197,-1.333585666921837,4.962477684020996,-0.02690627866221825,0.0012068728321188438,0.0017759469462674815,-0.000194287237897496,2.0420899391174316,-0.0006713867187499999,0.0005805660621263086,-0.847766101360321,-0.0020308552775532007
79.955421956,-21.99678500573483,197.53779427285286,-0.9846378137109345,4.962477207183838,-0.004644955614213169,0.0007469411878222587,0.0017758422232247995,-0.00018760129241347388,2.0420899391174316,-0.000640869140625,0.0005805660621263087,-0.8619288802146912,-0.0014409876894205809
80.055421957,-22.813464377372355,198.57439033188584,-1.153444223786846,4.962477684020996,-0.0011111486862304901,0.0008940869997655643,0.0017757712199113485,-0.00018314400113546056,2.0420899391174316,-0.0006713867187499999,0.0005805660621263085,-0.8726624846458433,-0.0016885824734345078
80.155421959,-22.003512853795304,198.84971453244762,0.04771931459052248,4.962477684020996,-0.006674649145272502,0.0008799802447163607,0.0017757350329077326,-0.00018091536406345606,2.0420899391174316,-0.0006713866023346781,0.0005805660621263086,-0.884321630001068,-0.0017089154571294785
80.355421962,-20.799857921627837,199.2855488964153,-2.7766950148343774,4.962479114532471,-0.00443673064712455,0.0009913983498888168,0.0017755885029089313,-0.0001720007986414337,2.0420901775360107,-0.0007019042386673391,0.0005805660621263087,-0.9091178774833679,-0.0018975030397996306
80.455421963,-19.80580276575651,197.4280661317722,-1.1922231954606963,4.9624786376953125,-0.02708659924267534,0.001470486416834893,0.0017755136615562606,-0.00016754357589943755,2.0420899391174316,-0.0007019042386673392,0.0005805660621263086,-0.9219695329666137,-0.001980571076273918
80.605421966,-18.432017451820567,197.20429384984394,-2.502857940214468,4.962477207183838,-0.0044553549834059234,0.001019704023816792,0.0017753992064086788,-0.00016085773321944117,2.0420899391174316,-0.0006408691406250001,0.0005805660621263086,-0.9388605952262881,-0.00123423186596483
80.705421967,-18.95687280900068,195.5929301408442,-0.9625210977087197,4.962477207183838,-0.021992208512888276,0.0010708868083286749,0.0017752844771194987,-0.00015417187340544049,2.0420899391174316,-0.000671386660542339,0.0005805660621263085,-0.9479670524597166,-0.0013991568703204393
80.855421969,-16.687334046099604,198.27994868578418,-1.4812476968944766,4.962478160858154,-0.00198686033931052,0.0007854611172815051,0.0017752074426340414,-0.0001497147020654572,2.0420899391174316,-0.000732421875,0.0005805660621263086,-0.9630472064018247,-0.0019950843416154385
81.055421972,-16.107564085654456,197.13014414946588,-1.3286048346467736,4.9624786376953125,-0.021924472491789537,0.0012371696998955128,0.0017750499468576209,-0.00014080037651949492,2.0420901775360107,-0.0007629393949173391,0.0005805660621263086,-0.984332203865051,-0.0021301968954503536
81.155421974,-17.01299312931048,198.96968601556586,-1.9294163707739944,4.9624786376953125,-0.002464706402087368,0.0008774087600889047,0.0017749289122548362,-0.00013411464521052643,2.0420899391174316,-0.0007629393949173393,0.0005805660621263087,-0.9951730370521548,-0.0021136293653398752
81.255421975,-15.383737189150072,197.31601385812445,-0.520692466866554,4.962477684020996,-0.0011514906579793583,0.0009534928459600245,0.001774888201879321,-0.00013188609380854335,2.0420901775360107,-0.00079345703125,0.0005805660621263086,-1.0064200162887573,-0.002155661815777421
81.305421976,-15.261568997420438,196.49733027143122,-1.4005465284674468,4.962477684020996,-0.0031915386103621903,0.0008744845496939657,0.0017748470802416705,-0.0001296575424065603,2.0420899391174316,-0.0007629393367096784,0.0005805660621263087,-1.0114827156066895,-0.0016667823074385524
81.405421977,-15.564158670485126,197.5287768172564,-0.11717403254032932,4.962478160858154,-0.00019330783348578702,0.0008633315884911674,0.0017747648370374236,-0.00012520043960259416,2.0420899391174316,-0.000732421816792339,0.0005805660621263086,-1.0217925310134888,-0.0016198006924241781
81.705421982,-12.943090827912043,197.23467949058417,-1.2929104711940416,4.962479114532471,-0.018235251423148063,0.0010610730672172553,0.0017745138581517494,-0.00011182916545870436,2.0420899391174316,-0.0007019042968750002,0.0005805660621263088,-1.050124526023865,-0.0014022120740264654
81.955421986,-13.340171564484024,198.01911678187213,-1.089735133144953,4.962477684020996,-0.00767427009896083,0.0004650234114239593,0.001774299888708697,-0.00010068654552082336,2.0420901775360107,-0.0007019042386673391,0.0005805660621263086,-1.0716149806976316,-0.0009314865455962718
82.155421989,-12.324440023234077,197.98729805850996,-1.4242688699120443,4.962477684020996,-0.015667784581633,0.0007418061833427414,0.0017741284115828648,-9.177245128391898e-05,2.0420901775360107,-0.000671386660542339,0.0005805660621263085,-1.0835490226745603,-0.0008185029146261513
82.205421989,-11.987697397930335,197.89514400347346,-1.9641353923503804,4.962478160858154,-0.013033281766137219,0.0006689296263056033,0.0017740423303393982,-8.731541701597001e-05,2.0420899391174316,-0.0007019042968750001,0.0005805660621263087,-1.0866274833679204,-0.0011406177654862404
82.305421991,-11.824627269992181,197.24168198372863,-1.660712428733354,4.962479114532471,-0.006022003378092591,0.00036225960363045484,0.0017739992897247703,-8.508689131499339e-05,2.0420899391174316,-0.000671386660542339,0.0005805660621263085,-1.0940313339233398,-0.0006858458509668708
82.605421995,-8.172709166412607,198.23003282187435,-1.9005323975005766,4.962478160858154,-0.003989517862988037,0.0003234597692073349,0.0017737384416562918,-7.171583562965828e-05,2.0420899391174316,-0.0007019041804596783,0.0005805660621263088,-1.1062035560607912,-0.0009655936737544835
83.005422001,-7.561795692894494,195.73608369593364,-1.2848926868652835,4.962479591369629,-0.005134218015977226,0.00020797849075848696,0.0017733425776071954,-5.165930136191795e-05,2.0420901775360107,-0.0006408691988326609,0.0005805660621263086,-1.1218117475509646,-0.0007359889568760991
83.205422004,-5.548291266714653,197.14585061378872,-0.13681996312172362,4.962479114532471,-0.0037516633135026498,0.0002392243046321907,0.0017732092065330107,-4.497383134651488e-05,2.0420901775360107,-0.0007019042386673393,0.0005805660621263087,-1.1288909912109375,-0.0008098045946098864
83.305422006,-5.674385477036113,198.48667291071064,0.5137609751680778,4.962477684020996,-0.0031117606284820063,0.00028055352415568,0.0017731202467672347,-4.051684848057878e-05,2.0420901775360107,-0.0006713866605423391,0.0005805660621263086,-1.1312960386276247,-0.0001504562678746879
83.455422008,-5.897976259883386,198.3529356209334,-0.301798892824961,4.9624762535095215,-0.004272879355102141,8.391687355935318e-05,0.0017729874239762466,-3.383136989817356e-05,2.0420899391174316,-0.0007019042386673393,0.0005805660621263087,-1.1342313289642338,-0.00048021177644841373
83.505422009,-3.5519456427878793,197.27816870221983,-1.0910663788895683,4.96247673034668,-0.005853817576496612,7.313484332494014e-05,0.0017729430126252055,-3.160287846520551e-05,2.0420899391174316,-0.0007019042386673391,0.0005805660621263087,-1.1349409818649299,-0.00018802903650794178
83.60542201,-3.9244215660091313,197.78709767910277,-2.897788832710429,4.962477207183838,-0.0036028378541296422,0.0001715083531383388,0.0017728543270152386,-2.7145893457518878e-05,2.0420899391174316,-0.0007019042386673391,0.0005805660621263086,-1.1357097625732422,3.2732954423408955e-05
83.655422011,-4.848208541858645,196.38477019515744,-1.8006939161867188,4.962478160858154,-0.007910806075362483,-5.286790342040604e-05,0.0017728100527563129,-2.4917397741049754e-05,2.0420899391174316,-0.0007019042386673391,0.0005805660621263085,-1.1361024379730225,-0.00018065987387672067
83.705422012,-4.730054615341615,198.35082989888502,0.3738926930059334,4.962479114532471,-0.005682198372095797,0.0001233152039621377,0.0017727659155752917,-2.2688902024580633e-05,2.0420901775360107,-0.000701904296875,0.0005805660621263086,-1.1359410285949707,0.00011742372589651495
83.805422013,-2.9039038250106115,197.79909486286826,-1.973758485115496,4.962479591369629,-0.004797452871591177,6.425980788504759e-05,0.0017726775040927123,-1.8231912733392927e-05,2.0420901775360107,-0.0007019042386673392,0.0005805660621263087,-1.135762691497803,0.00014614425890613347
83.855422014,-1.7018291192520865,197.3182690244479,-0.27191826455705426,4.962479591369629,-0.006003784502268987,-0.00010538706346102655,0.0017726332298337866,-1.6003414875173267e-05,2.0420901775360107,-0.0007324219332076609,0.0005805660621263086,-1.1360632181167603,-0.00016952768783085048
83.955422015,-1.2919695646957483,197.52899209759065,-0.6690478870229404,4.962477684020996,-0.006345931671018255,0.0001110284000906403,0.0017725448183796289,-1.1546419158733953e-05,2.0420901775360107,-0.000732421875,0.0005805660621263087,-1.1363617181777954,-0.00015338860976044089
84.055422017,-1.0597955901474734,195.80902475414925,-1.2870844045636318,4.962477207183838,-0.004795220710354,-4.6394247762038265e-05,0.0017724121326381237,-4.860935221952393e-06,2.0420899391174316,-0.0007324219332076608,0.0005805660621263086,-1.1366902589797974,-0.00015580329636577517
84.105422018,0.9271124881505708,196.405675334404,0.13551225622723106,4.962477207183838,-0.005459011820975265,0.00010818099288700811,0.0017723679954571026,-2.632438970045637e-06,2.0420899391174316,-0.0007324219332076608,0.0005805660621263086,-1.1366902589797974,7.765867485431954e-05
84.155422018,-0.8272611840872619,198.54116553291695,-1.5560223557145036,4.962478160858154,-0.006544480929826881,0.00011962125491654652,0.0017723235841202722,-4.039457969052771e-07,2.0420899391174316,-0.000732421816792339,0.0005805660621263086,-1.1370261907577512,-0.0001677560794632882
84.305422021,-0.5277462433947379,197.89675029577958,-1.2979096312017941,4.962478160858154,-0.0043438254017468215,1.9513699717199628e-07,0.0017722351726519037,4.0530433604230215e-06,2.0420901775360107,-0.0007324218750000001,0.0005805660621263085,-1.13778817653656,-3.8618320104433224e-05
84.505422024,1.4110427793523117,197.24863572825947,-1.7030242075021156,4.962478160858154,-0.0014215499079355046,0.0001372427515649588,0.00177205780143197,1.296700695054468e-05,2.0420899391174316,-0.000732421875,0.0005805660621263086,-1.1409655809402466,-0.0002708936226554215
84.605422025,2.605502813163678,199.33715877593565,-0.6711949575498422,4.962478160858154,-0.0037756073520052724,0.00013816837224833733,0.0017719678821777052,1.7423980178603368e-05,2.0420899391174316,-0.000732421816792339,0.0005805660621263086,-1.143280029296875,-0.0002924342406913638
84.705422027,2.5947230181366563,194.94219429106775,-1.86607315215961,4.962478160858154,-0.006941029440488582,-2.355354757993533e-05,0.0017718780999871342,2.1880954477537318e-05,2.0420899391174316,-0.0007019042386673391,0.0005805660621263085,-1.1441334486007688,-0.0002836099884007126
84.755422027,1.5187159934723544,196.50444368594611,0.17449447530921613,4.962477207183838,-0.004932822835763929,8.480779057851162e-06,0.0017718332774450118,2.4109441627004296e-05,2.0420899391174316,-0.0007019042386673391,0.0005805660621263087,-1.1444338560104372,-5.875087663298473e-05
84.855422029,2.2380950291505397,197.09950065882154,0.5453118679853342,4.962477207183838,-0.0031442388691550315,4.686416951033001e-05,0.0017717439064739438,2.8566413784187714e-05,2.0420901775360107,-0.000701904296875,0.0005805660621263086,-1.1455280780792236,-0.00011566755711100996
85.005422031,2.369228227630301,197.21974602218856,-1.2769023886024506,4.962478160858154,-0.0037688821819773944,6.450728483481383e-05,0.0017716093017412504,3.525186880733703e-05,2.0420899391174316,-0.000701904238667339,0.0005805660621263086,-1.1478883028030398,-0.0003701592795550823
85.105422033,3.148679920605184,197.64301197244,-3.118294283687867,4.962479114532471,-0.006582165396219016,0.0002643002621375845,0.0017715196566143732,3.970883882276992e-05,2.0420901775360107,-0.0007019041804596785,0.0005805660621263088,-1.1498365402221682,-0.0004395796568132937
85.205422034,2.5128668656010675,198.0844438368545,-0.1070184886697172,4.962479591369629,-0.0020824816920902815,0.00014283914410484488,0.0017714297373743193,4.416580027120065e-05,2.0420899391174316,-0.0007019041804596784,0.0005805660621263088,-1.1518989801406863,-0.0004318379797041416
85.255422035,3.181627329987835,199.29048793775513,-1.1914658309606063,4.962479591369629,-0.005531162181380619,0.0002557307327253344,0.0017713847777400815,4.6394270286663334e-05,2.0420901775360107,-0.0007019042386673392,0.0005805660621263088,-1.152858972549439,-0.00031027529621496797
85.505422039,5.7349579987230275,196.32673548235812,-2.8545841785926944,4.962477684020996,-0.0010599080593582874,0.0001915124554548453,0.0017711575123087187,5.753665463198535e-05,2.0420899391174316,-0.0007019041804596783,0.0005805660621263087,-1.159268379211426,-0.0005163680179975927
85.60542204,5.596790706602377,195.57589091523002,-1.500684775622241,4.962477207183838,-0.006625854352263055,0.0003226701186181957,0.00177102112563432,6.422207324537555e-05,2.0420899391174316,-0.0007019042968750001,0.0005805660621263088,-1.161914110183716,-0.000548117735888809
85.705422042,7.3387545359208595,196.52771790172423,-1.4202553371004285,4.962477207183838,-0.0073969474501306386,0.0003347083077148705,0.0017709299727499683,6.867900899279986e-05,2.0420899391174316,-0.0007019043550826611,0.0005805660621263086,-1.1645714044570927,-0.0005638597649522126
85.805422043,7.184609373155048,197.19477718594388,0.4316555776911386,4.962478160858154,-0.006008874443776982,0.00034363795875747005,0.0017708839165493373,7.090746615775933e-05,2.0420899391174316,-0.0007019042386673392,0.0005805660621263087,-1.1675819158554077,-0.0005929551552981138
85.905422045,8.079864620583255,194.90366331837166,-2.4055743105035217,4.962479114532471,-0.007039470289157614,0.0003698011081042507,0.0017707920782612518,7.536438048767826e-05,2.0420901775360107,-0.0007019042386673392,0.0005805660621263087,-1.1707103252410886,-0.0006329789175651968
86.005422046,8.124437069980985,197.57562319816813,-2.4322602795497916,4.962480068206787,-0.0025369297338434975,0.0001671055390826126,0.001770654183815168,8.204976054955881e-05,2.0420899391174316,-0.0007019042386673392,0.0005805660621263087,-1.1732773780822754,-0.00033317296765744686
86.105422047,6.329179536165885,194.69187543712832,0.3632834789548689,4.962479591369629,-0.0018182667905273734,0.00017963526860365064,0.001770608127600326,8.427821771451828e-05,2.0420899391174316,-0.0007019041804596782,0.0005805660621263087,-1.175727725028992,-0.0003527265216689557
86.155422048,8.2899896726422,195.61253608642414,0.08840827707071552,4.962479114532471,-0.006936118254348642,0.000317410522295003,0.0017705622084633887,8.650667487947776e-05,2.0420899391174316,-0.0007019042386673391,0.0005805660621263086,-1.1771544218063354,-0.0005355114117264748
86.205422049,7.807961009693592,195.33396353580414,-1.4315607581718275,4.962479114532471,-0.0015284301174373367,0.00019847935827516094,0.0017705158781211594,8.873513204443722e-05,2.0420899391174316,-0.0007019042386673392,0.0005805660621263086,-1.1783478260040285,-0.0003858747659251094
86.25542205,11.406947585027373,197.13454390365055,-0.5280443813490481,4.962478160858154,-0.006145197534351956,0.00031374160540065255,0.0017704696848568346,9.096358920939669e-05,2.0420901775360107,-0.0007019042386673391,0.0005805660621263087,-1.1797937154769897,-0.0005353566375561059
86.355422051,9.358910227586998,197.41114083658744,-1.7271499828370929,4.962477684020996,-0.00202204391458332,0.00018796471692900107,0.0017703304196459158,9.76489607042751e-05,2.0420899391174316,-0.0007019041804596782,0.0005805660621263087,-1.1822468042373662,-0.000473455322207883
86.455422053,10.87281721529028,196.31380911194353,-1.0696987120363577,4.962475776672363,-0.006014103119884007,0.00029162541532321007,0.0017702839522399927,9.987742643623671e-05,2.0420899391174316,-0.000701904355082661,0.0005805660621263086,-1.1846342086791994,-0.000495018030051142
86.505422053,8.942184700262619,197.64120093207862,-2.023223387885793,4.9624762535095215,-0.0005523542906464533,0.00020344738692765207,0.0017701911544776294,0.00010433434076615566,2.0420901775360107,-0.000701904238667339,0.0005805660621263086,-1.1858066320419314,-0.0003868068160954863
86.655422056,12.726148271811201,197.3649960003951,-2.6289227443713608,4.96247673034668,-0.0001068973921457574,0.000226385655608341,0.0017700979454815524,0.00010879126366307673,2.0420901775360107,-0.0007019042386673391,0.0005805660621263087,-1.190039038658142,-0.0005646282806992531
86.805422058,11.312189764377571,196.453956441896,-2.3661546976439483,4.9624786376953125,-0.0052725781732219715,0.0003200542588135402,0.001769957172513159,0.000115476626590953,2.0420901775360107,-0.0007019042386673393,0.0005805660621263087,-1.1942157745361328,-0.00042883679270744324
86.855422059,12.455334249932529,196.35092534669562,-1.741033162596175,4.962479591369629,-0.0008187472169363505,0.00022490818977261018,0.0017698631410922872,0.00011993350665286336,2.0420899391174316,-0.0007019042386673392,0.0005805660621263086,-1.1957459449768066,-0.0005609751679003239
86.905422059,12.91555851128896,198.79786727621092,-0.4774852619535924,4.962480068206787,-0.00013746521308930464,0.00024873367754102427,0.0017698161253747458,0.00012216192954981424,2.0420901775360107,-0.0007019042386673391,0.0005805660621263086,-1.1971360445022583,-0.00046571996062994003
87.005422061,13.385890665999367,198.01222836374203,0.11393747390395559,4.9624786376953125,-0.0004345085288098645,0.0002478094791389662,0.0017697220939538738,0.00012661877534371602,2.0420899391174316,-0.0007019042386673391,0.0005805660621263087,-1.2001616954803467,-0.0004687159089371562
87.105422062,14.733241087660968,197.02496889561434,-1.301947012983435,4.9624786376953125,-0.005991367099459447,0.0003464626094599743,0.0017696749412010604,0.00012884720680766905,2.0420901775360107,-0.0007019041804596782,0.0005805660621263086,-1.203267693519592,-0.00049066380597651
87.205422064,13.983413890057557,196.64010090125095,-1.5461540348893883,4.962477207183838,-0.0006492343136199504,0.0002750057736369549,0.001769580361482781,0.00013330405260157083,2.0420899391174316,-0.0007019042386673391,0.0005805660621263086,-1.2064154148101809,-0.0005103834555484354
87.305422065,14.82216635369138,196.78497285463177,0.22627055306607424,4.96247673034668,-0.0011041761914276202,0.0003016744017650397,0.001769437532431084,0.00013998932985942564,2.0420899391174316,-0.0007019041804596783,0.0005805660621263087,-1.2097887992858891,-0.000556756800506264
87.505422068,15.33294632001637,196.63390587607165,-0.8060161949066313,4.9624786376953125,-0.005375432692478461,0.0003278179236295975,0.0017692951145846791,0.0001466745985502783,2.0420899391174316,-0.0007019042386673394,0.0005805660621263089,-1.2155084609985356,-0.0005685639916919172
