Time,x,y,yaw,v,acc,steer,Lat,Long,Alt,Roll,Pitch,Yaw,AngVel
100.04483644,87.89053344726562,-4.181746959686279,-1.970866560935974,4.939661502838135,-0.0012447543774238667,0.0005304461120736771,-3.761789916723046e-05,0.0007917397213552102,2.391913652420044,-0.0630187839269638,-0.03313324600458145,-1.9730513095855713,-0.0007051570573821664
100.144836441,88.63101196289062,-4.20736837387085,-1.9757276773452757,4.939659595489502,-0.005251377139980243,0.00015256936174571842,-3.769468949599286e-05,0.0007939569985823705,2.391913414001465,-0.06268308311700821,-0.03313324600458145,-1.9757276773452757,-0.00031466709333471954
100.394836445,89.61831665039062,-4.241446018218994,-1.9757635593414309,4.939640522003174,-0.005166739905001749,-0.00013552541798452639,-3.815406500962126e-05,0.000807260661945332,2.391913890838623,-0.06225584447383881,-0.03313324600458146,-1.974957585334778,0.00029759202152490616
100.544836447,90.35879516601562,-4.266916275024414,-1.972655177116394,4.93963098526001,-0.004014281947862652,-0.00025223593862164564,-3.830653194825118e-05,0.0008116952163996524,2.391913890838623,-0.06225585192441939,-0.033133246004581444,-1.9712975025176993,0.0004821945622097701
100.594836448,90.60562133789062,-4.275390148162842,-1.9712975025176993,4.939627647399902,-0.0036362336756650977,-0.00028969937973751143,-3.838263690170152e-05,0.0008139124936268127,2.391913652420044,-0.06228636577725411,-0.03313324600458146,-1.9698407649993896,0.000515504740178585
100.69483645,91.09927368164062,-4.2923126220703125,-1.968333840370178,4.9396281242370605,-0.003117675787944297,-0.0002948821195338479,-3.853463692848891e-05,0.0008183470480811331,2.391913890838623,-0.06237792596220969,-0.03313324600458145,-1.9668030738830569,0.0005360081559047103
100.74483645,91.34609985351562,-4.3007636070251465,-1.9668030738830569,4.939628601074219,-0.0029310479565025824,-0.00029822131606107444,-3.8610532016036814e-05,0.0008205643253082934,2.391913652420044,-0.062408436089754105,-0.03313324600458145,-1.9652289152145377,0.0005534395459108055
100.794836451,91.59292602539062,-4.309206962585449,-1.9652289152145377,4.939629077911377,-0.004119428876732339,-0.00033664993505954505,-3.868636713377782e-05,0.0008227816025354537,2.391913652420044,-0.062408428639173494,-0.033133246004581444,-1.96354329586029,0.0005975710810162127
100.844836452,91.83975219726562,-4.317640781402588,-1.96354329586029,4.939629554748535,-0.0045942163993646255,-0.0003655829772779909,-3.883782743230313e-05,0.0008272161569897741,2.391913890838623,-0.062347412109375014,-0.033133246004581444,-1.9617164134979244,0.00064803846180439
100.894836453,92.33340454101562,-4.334475517272949,-1.9596685171127317,4.939630031585693,-0.005945765710907309,-0.00041622803277962736,-3.8913418364927566e-05,0.0008294334342169344,2.391913652420044,-0.06225585192441939,-0.03313324600458145,-1.9596685171127317,0.0007320541189983487
101.044836455,92.82705688476562,-4.351253509521484,-1.954772472381592,4.939631462097168,-0.008745237640265817,-0.0006001535063154539,-3.9064253300580276e-05,0.0008338679886712549,2.391913652420044,-0.0617370493710041,-0.033133246004581444,-1.9518233537673944,0.0010541139636188745
101.144836456,93.32074737548828,-4.367955684661865,-1.9484374523162846,4.939631938934326,-0.011438672837990802,-0.0007807826651058669,-3.9214462830727825e-05,0.0008383028858056612,2.391913890838623,-0.061248771846294424,-0.03313324600458145,-1.9446036815643308,0.0013701824937015772
101.194836457,93.81446075439453,-4.3845601081848145,-1.940239191055297,4.939632415771484,-0.013450341572724992,-0.0008928989681785543,-3.928926133767163e-05,0.00084052043717689,2.391913890838623,-0.060943599790334674,-0.033133246004581444,-1.940239191055297,0.0015633042203262448
101.344836459,94.30817413330078,-4.401041030883789,-1.9298026561737063,4.939632415771484,-0.01635480088499438,-0.0011255078157047238,-3.95121276142163e-05,0.0008471730227545595,2.391913652420044,-0.05996702983975407,-0.033133246004581444,-1.9236404895782466,0.0021979850716888905
101.39483646,94.5550308227539,-4.40922737121582,-1.9236404895782466,4.939632892608643,-0.017646954775463054,-0.0012510673795906035,-3.958579098650716e-05,0.0008493905741257885,2.391913652420044,-0.05960082262754439,-0.033133246004581444,-1.9167945384979246,0.0024396153166890144
101.444836461,94.80187225341797,-4.41737174987793,-1.9167945384979246,4.939632415771484,-0.019361484261405593,-0.0013880828506005471,-3.965909453995664e-05,0.0008516080569610002,2.391913652420044,-0.059234604239463785,-0.03313324600458145,-1.909243106842041,0.0026871629524976015
101.494836461,95.0487289428711,-4.425471782684326,-1.909243106842041,4.939631938934326,-0.020801113109014984,-0.0015271188144543868,-3.973199970630503e-05,0.0008538254712601947,2.391913890838623,-0.0588378868997097,-0.03313324600458145,-1.9009068012237547,0.0029681401792913675
101.544836462,95.29558563232422,-4.433521747589111,-1.9009068012237547,4.93963098526001,-0.02311085547719074,-0.0016878791298818724,-3.9804463710879645e-05,0.0008560430226314236,2.391913890838623,-0.058441154658794396,-0.03313324600458145,-1.8917781114578243,0.0032432980369776487
101.59483646300001,95.54244232177734,-4.441519737243652,-1.8917781114578243,4.939630508422852,-0.02440932147302559,-0.0018410925361665442,-3.9876460775190026e-05,0.0008582605740026525,2.391913890838623,-0.0580444261431694,-0.03313324600458146,-1.8818422555923457,0.003527085529640317
101.644836464,95.78929138183594,-4.449460506439209,-1.8818422555923457,4.939630031585693,-0.02609092076796834,-0.0020007181555565384,-3.994794386130707e-05,0.0008604781253738813,2.391913890838623,-0.0576171837747097,-0.033133246004581444,-1.8710715770721429,0.003820195095613599
101.694836464,96.03614044189453,-4.457340717315674,-1.8710715770721429,4.939629554748535,-0.02942500456442252,-0.0023323253210802003,-4.0089269404575134e-05,0.0008649130910443048,2.391913890838623,-0.057189937680959715,-0.03313324600458145,-1.859451651573181,0.004117486998438835
101.794836466,96.52985382080078,-4.472901344299316,-1.8469359874725342,4.939629554748535,-0.03152590222848575,-0.002511693627479994,-4.015900908882486e-05,0.0008671306424155337,2.391913890838623,-0.05633543804287909,-0.033133246004581444,-1.8335220813751223,0.004746683873236179
101.844836467,96.77669525146484,-4.480574131011963,-1.8335220813751223,4.939627170562744,-0.03498848286681273,-0.002869651967941006,-4.02280976743441e-05,0.0008693481252507455,2.391913890838623,-0.05590820312499999,-0.03313324600458145,-1.8191838264465328,0.0050725736655294895
101.894836467,97.27042388916016,-4.495681285858154,-1.8038876056671147,4.939626216888428,-0.03694440139612361,-0.0030586393051394434,-4.029648805214947e-05,0.0008715656766219743,2.391913890838623,-0.05545043572783471,-0.03313324600458145,-1.8038876056671147,0.0054084500297904015
101.994836469,97.5173110961914,-4.503108024597168,-1.787679672241211,4.939624309539795,-0.04018116603991059,-0.003422290184357607,-4.043101996842324e-05,0.0008760010535085007,2.391913890838623,-0.054595936089754105,-0.03313324600458145,-1.7705222368240354,0.006058501545339823
102.294836473,98.99858856201172,-4.545653820037842,-1.6715735197067256,4.939621448516846,-0.045621987134266496,-0.0042524698175493425,-4.081410631329163e-05,0.0008893076639202001,2.391914129257202,-0.05242918804287911,-0.03313324600458145,-1.6493297815322876,0.007818842306733131
102.344836474,99.24546813964844,-4.552379131317139,-1.6493297815322876,4.939621448516846,-0.04681351648762776,-0.004399225639954568,-4.087464077429104e-05,0.0008915252838274461,2.391913890838623,-0.05215452983975411,-0.03313324600458146,-1.6263473033905036,0.008075463585555553
102.394836475,99.49234771728516,-4.558992385864258,-1.6263473033905036,4.9396209716796875,-0.047845812938834935,-0.004542186246884183,-4.093415573436232e-05,0.0008937430408067265,2.391913890838623,-0.051879871636629105,-0.033133246004581444,-1.6026420593261714,0.008326715789735317
102.444836476,99.7392578125,-4.56549072265625,-1.6026420593261714,4.9396209716796875,-0.04888254111018658,-0.004682226341350293,-4.09926426527818e-05,0.0008959610719300755,2.3919143676757812,-0.05163573473691939,-0.03313324600458145,-1.5782921314239502,0.008544616401195526
102.494836476,99.98616790771484,-4.571873188018799,-1.5782921314239502,4.939620494842529,-0.049056876466107166,-0.004800514634213271,-4.1050071544646016e-05,0.0008981791030534244,2.3919143676757812,-0.05136108025908471,-0.03313324600458145,-1.5532526969909664,0.008791306987404823
102.544836477,100.23307037353516,-4.5781354904174805,-1.5532526969909664,4.939620018005371,-0.05285201544130516,-0.00509540361625449,-4.110643385502044e-05,0.0009003970656407563,2.3919143676757812,-0.05105589702725411,-0.03313324600458145,-1.527453422546387,0.00906110368669033
102.594836478,100.47998046875,-4.584273338317871,-1.527453422546387,4.939620018005371,-0.051364882339946495,-0.005183867238739204,-4.121580877836095e-05,0.0009048331278874544,2.391914129257202,-0.0508422814309597,-0.033133246004581444,-1.5010944604873655,0.009237485937774181
102.844836482,101.71451568603516,-4.613086223602295,-1.3909831047058108,4.939621925354004,-0.051918934457742906,-0.005505661232063974,-4.14208256955817e-05,0.0009137050467727989,2.391913890838623,-0.05020140856504441,-0.03313324600458146,-1.3624535799026491,0.009992512874305248
102.894836482,101.96144104003906,-4.618464946746826,-1.3624535799026491,4.939621448516846,-0.05424312135674527,-0.005605253921425302,-4.146919499703472e-05,0.0009159232149681822,2.3919143676757812,-0.050231926143169396,-0.03313324600458145,-1.3338124752044678,0.009998914785683155
102.944836483,102.2083740234375,-4.62371826171875,-1.3338124752044678,4.939621448516846,-0.050190567992359804,-0.005591269482569661,-4.151638205485142e-05,0.0009181414516995827,2.3919143676757812,-0.0501708872616291,-0.033133246004581444,-1.304876565933227,0.010126898065209389
102.994836484,102.455322265625,-4.628841400146484,-1.304876565933227,4.939621925354004,-0.05371760478403437,-0.005676267858845119,-4.1562433963804324e-05,0.0009203597569670003,2.3919143676757812,-0.0501708872616291,-0.03313324600458145,-1.2758111953735352,0.01015057135373354
103.094836485,102.9491958618164,-4.638702392578125,-1.2465507984161377,4.939621448516846,-0.04999205085647953,-0.005702269437033891,-4.165104246567353e-05,0.0009247963675018356,2.391914129257202,-0.05020140856504441,-0.03313324600458145,-1.2173030376434326,0.010203824378550053
103.194836487,103.44306182861328,-4.6480536460876465,-1.1879411935806274,4.9396209716796875,-0.052255813215713494,-0.005743342077007163,-4.1735020488431473e-05,0.0009292327724286194,2.3919143676757812,-0.05032347515225411,-0.03313324600458146,-1.1586213111877444,0.010227637365460396
103.244836488,103.69001007080078,-4.652539253234863,-1.1586213111877444,4.939620494842529,-0.04976791078559506,-0.005714763893978181,-4.177528541049469e-05,0.000931451077696037,2.3919143676757812,-0.050353992730379084,-0.033133246004581444,-1.1292328834533687,0.010266254656016827
103.294836488,103.93694305419922,-4.656896591186523,-1.1292328834533687,4.939620018005371,-0.05169851466623086,-0.0057442870407165,-4.181442376705036e-05,0.0009336693144274376,2.391914129257202,-0.050445541739463806,-0.03313324600458145,-1.0999449491500857,0.010212264023721218
103.39483649,104.43081665039062,-4.665236473083496,-1.0706484317779537,4.939619541168213,-0.05090451729702825,-0.0057217421750490605,-4.188930793702639e-05,0.0009381059249622728,2.391913890838623,-0.05050658062100409,-0.033133246004581444,-1.0413300991058347,0.010235224850475788
103.444836491,104.67776489257812,-4.669216156005859,-1.0413300991058347,4.939620018005371,-0.04749569314009442,-0.005656386641634703,-4.1925053736235895e-05,0.0009403242302296904,2.391914129257202,-0.0506286434829235,-0.03313324600458146,-1.0122324228286743,0.010136459022760391
103.494836491,105.17163848876953,-4.676809787750244,-0.9832537174224851,4.939621448516846,-0.04903719011083641,-0.0056492820619825634,-4.199319997155726e-05,0.0009447607722285086,2.3919143676757812,-0.050720203667879105,-0.03313324600458145,-0.9832537174224851,0.010109718888998032
103.594836493,105.4186019897461,-4.680426597595215,-0.9545682072639465,4.939622402191162,-0.045959610903669845,-0.005570584960869429,-4.202562607247273e-05,0.0009469792831039778,2.3919143676757812,-0.05105590075254439,-0.03313324600458145,-0.9260952472686768,0.009925846941769123
103.694836494,105.91253662109375,-4.687305927276611,-0.8979766368865965,4.939626216888428,-0.04561925788498762,-0.005422997672804242,-4.208729991717064e-05,0.000951416304854916,2.3919143676757812,-0.051422104239463806,-0.03313324600458145,-0.8701031804084777,0.009714765474200249
103.894836497,106.90042114257812,-4.699700355529785,-0.7885594367980959,4.939628601074219,-0.04102929197401376,-0.00519120962382813,-4.219838824326416e-05,0.0009602906225008611,2.391914129257202,-0.0521545298397541,-0.033133246004581444,-0.7620614171028136,0.009230796247720718
103.994836499,107.39435577392578,-4.70524263381958,-0.7359766364097594,4.939630031585693,-0.0401264065536619,-0.00505369891446239,-4.2248051144611054e-05,0.0009647277127878166,2.391914129257202,-0.052520748227834695,-0.03313324600458145,-0.7101783156394961,0.00898783653974533
104.044836499,107.64132690429688,-4.707855224609375,-0.7101783156394961,4.939631462097168,-0.03867472037048502,-0.004911787097778508,-4.227146904156598e-05,0.0009669462921993028,2.391914129257202,-0.052734356373548494,-0.033133246004581444,-0.6848098039627074,0.008820729330182076
104.144836501,108.13526153564453,-4.712775230407715,-0.659775733947754,4.939631938934326,-0.039769777678694745,-0.004814006394819492,-4.2336214164606645e-05,0.0009736018933617273,2.391914129257202,-0.053009022027254105,-0.03313324600458146,-0.6350001692771912,0.008630284108221531
104.244836502,108.62920379638672,-4.71729040145874,-0.6106475591659546,4.939632892608643,-0.03802535672242608,-0.004662714917283206,-4.23559953617314e-05,0.0009758204727732137,2.3919143676757812,-0.0533447153866291,-0.03313324600458145,-0.5866267681121826,0.008363369852304459
104.394836505,109.3701171875,-4.723339557647705,-0.5397343635559082,4.939633369445801,-0.03680589455285307,-0.004519751181334686,-4.2410164525108485e-05,0.0009824761424716553,2.391913890838623,-0.0538329966366291,-0.03313324600458145,-0.5168129801750184,0.00797335710376501
104.494836506,109.86405944824219,-4.726905345916748,-0.49419227242469804,4.93963098526001,-0.035780394012970985,-0.004390498806228271,-4.244210231263423e-05,0.0009869133698306451,2.391914129257202,-0.0539550743997097,-0.03313324600458146,-0.49419227242469804,0.007875850424170494
104.644836508,110.60496520996094,-4.731576919555664,-0.42818760871887207,4.93963098526001,-0.034155395267511504,-0.004212841077572638,-4.2496297155025786e-05,0.000995787618940573,2.391914129257202,-0.0544433481991291,-0.03313324600458145,-0.40670362114906305,0.00748348468914628
104.694836509,110.85194396972656,-4.732956886291504,-0.40670362114906305,4.939629554748535,-0.03451589906341889,-0.004173313319569688,-4.250787546311585e-05,0.000998006129816042,2.3919143676757812,-0.05453490093350411,-0.03313324600458146,-0.3854485750198364,0.007402596529573202
104.74483651,111.09891510009766,-4.734248638153076,-0.3854485750198364,4.939629554748535,-0.03404880624205003,-0.004127536341900745,-4.251867416371624e-05,0.0010002247777635457,2.391913890838623,-0.054595936089754105,-0.03313324600458145,-0.3643702268600464,0.0073459697887301445
104.844836511,111.83982849121094,-4.737599849700928,-0.3226400017738343,4.93963098526001,-0.03458574229327407,-0.004049840811293504,-4.252870185439406e-05,0.001002443357175032,2.391913890838623,-0.05462646111845971,-0.03313324600458146,-0.3226400017738343,0.007255109027028084
104.944836513,112.08680725097656,-4.738541126251221,-0.3019115924835205,4.939630031585693,-0.03485853687649919,-0.004037524708426804,-4.255409872655491e-05,0.0010090990954094907,2.391913890838623,-0.054595936089754105,-0.033133246004581444,-0.2812135517597198,0.007223496213555336
104.994836514,112.33377838134766,-4.739394187927246,-0.2812135517597198,4.939629554748535,-0.03534244904176759,-0.004035579596492894,-4.2560978030792285e-05,0.001011317743356994,2.391913890838623,-0.054565425962209695,-0.03313324600458145,-0.2605336308479309,0.007217328529804945
105.144836516,113.0746841430664,-4.741425037384033,-0.21939855813980103,4.939630031585693,-0.033271512428316094,-0.003954422233151567,-4.2572354999492745e-05,0.0010157548336439497,2.391914129257202,-0.05465697869658471,-0.03313324600458145,-0.1990503668785095,0.00708966376259923
105.39483652,114.3095474243164,-4.7431440353393555,-0.12050939351320265,4.939631938934326,-0.02820627727317877,-0.0036846988123389324,-4.258751859254062e-05,0.0010268476621653638,2.391913890838623,-0.05566405132412909,-0.033133246004581444,-0.10192205756902693,0.006452301051467657
105.44483652,114.5565185546875,-4.743259429931641,-0.10192205756902693,4.939632415771484,-0.026745079769209066,-0.003585381761097517,-4.258845667948208e-05,0.0010290663101128674,2.391913890838623,-0.05599974468350412,-0.033133246004581444,-0.08391550928354263,0.006242069881409407
105.494836521,114.80349731445312,-4.743308067321777,-0.08391550928354263,4.939632892608643,-0.022990940511869368,-0.003335834254184905,-4.258876937512923e-05,0.0010312848895243536,2.391913890838623,-0.0563659593462944,-0.03313324600458145,-0.06654558330774307,0.006016664206981659
105.594836523,115.29743957519531,-4.7432169914245605,-0.049891065806150436,4.939632892608643,-0.020809564223288387,-0.003189183396141132,-4.258767280873599e-05,0.0010357220483473261,2.391914129257202,-0.05718993023037909,-0.033133246004581444,-0.03402836248278618,0.005478941835463047
105.694836524,115.7913818359375,-4.7429070472717285,-0.019056946039199833,4.939631462097168,-0.013391110930871163,-0.0026494774148592692,-4.258234413612172e-05,0.0010423778551178022,2.391913890838623,-0.05822752043604849,-0.03313324600458145,-0.005061345174908637,0.004813860170543194
105.794836526,116.28533172607422,-4.742422580718994,0.007934570312499998,4.939631462097168,-0.011344224408537133,-0.0024516963967124716,-4.257979115607213e-05,0.0010445964345292885,2.391913890838623,-0.05935667455196379,-0.033133246004581444,0.01980590634047985,0.004066187888383865
105.844836526,116.7792739868164,-4.74180793762207,0.03051757626235485,4.939631938934326,-0.008185420565133763,-0.002225893876445534,-4.257692978626437e-05,0.0010468150139407747,2.391913890838623,-0.0599670298397541,-0.03313324600458146,0.03051757626235485,0.003656419226899743
105.994836529,117.2732162475586,-4.741114616394043,0.0482177771627903,4.939633369445801,-0.0029469046508356516,-0.0012283401774578762,-4.2567107726654285e-05,0.0010534708207112508,2.391913652420044,-0.061950664967298515,-0.03313324600458146,0.055084224790334695,0.0022966424003243446
106.044836529,117.76716613769531,-4.740395545959473,0.06057737767696381,4.939632892608643,-0.005768061167954616,-0.0009568787288715963,-4.256362522880863e-05,0.001055689400122737,2.391913652420044,-0.0626525729894638,-0.03313324600458145,0.06057737767696381,0.0018135368591174483
106.294836533,118.75505828857422,-4.739101886749268,0.0677490010857582,4.939630508422852,-0.021099057465685623,0.0005456718825088136,-4.254739076259284e-05,0.0010667823657161857,2.391913652420044,-0.06640623509883882,-0.03313324600458146,0.0656127780675888,-0.0008631121600046754
106.344836534,119.00202941894531,-4.7388529777526855,0.0656127780675888,4.939629554748535,-0.024302979149011483,0.0008621735670400199,-4.254486778165756e-05,0.001069000945127672,2.391913652420044,-0.0671691671013832,-0.033133246004581444,0.061859112232923515,-0.001426632166840136
106.444836535,119.4959716796875,-4.738490581512451,0.056671123951673515,4.939629077911377,-0.02483951912903521,0.0011277089382763228,-4.254106831069748e-05,0.0010734381724866616,2.3919131755828857,-0.0685729831457138,-0.03313324600458145,0.04986571520566939,-0.0024996730498969555
106.494836536,119.7429428100586,-4.738390922546387,0.04986571520566939,4.939628601074219,-0.03044554181699771,0.0017354432040300183,-4.2539894636206554e-05,0.0010756567518981478,2.391913414001465,-0.06924437731504439,-0.03313324600458145,0.0415649376809597,-0.003001428209245205
106.594836537,120.4838638305664,-4.738499641418457,0.019897459074854847,4.939626216888428,-0.036363560754985744,0.0023790923487763405,-4.253931635389563e-05,0.0010800939107211205,2.391913652420044,-0.07073972374200822,-0.03313324600458145,0.019897459074854847,-0.004151638131588697
106.694836539,120.7308349609375,-4.7387003898620605,0.006530761253088713,4.939624786376953,-0.043220968751783745,0.002758771485107697,-4.254155662408721e-05,0.0010845311380801102,2.391913414001465,-0.07238767296075821,-0.03313324600458145,-0.008701553568243982,-0.00545114278793335
106.74483654,120.9778060913086,-4.7389984130859375,-0.008701553568243982,4.939624786376953,-0.04653815846044656,0.003121641816337173,-4.254390826474719e-05,0.0010867497174915964,2.391913414001465,-0.07302854955196382,-0.03313324600458145,-0.02534395828843117,-0.005902624223381281
106.79483654,121.22478485107422,-4.7393927574157715,-0.02534395828843117,4.939624309539795,-0.04990012076302892,0.0036950214457068253,-4.254720228402675e-05,0.0010889682969030827,2.391913414001465,-0.07373046874999999,-0.03313324600458145,-0.043585594743490226,-0.006488603539764881
106.944836543,121.9656982421875,-4.741227626800537,-0.08418072760105132,4.9396233558654785,-0.05359795130964212,0.004236678512504144,-4.256298269922354e-05,0.0010956241036735588,2.391913414001465,-0.07531737536191942,-0.03313324600458145,-0.10643915832042695,-0.007849588990211487
106.994836543,122.2126693725586,-4.742069721221924,-0.10643915832042695,4.93962287902832,-0.05120097515533528,0.004434593509551332,-4.2570371746819546e-05,0.001097842683085045,2.3919131755828857,-0.0758361741900444,-0.03313324600458145,-0.1300739198923111,-0.008354393765330315
107.044836544,122.45964813232422,-4.743038177490234,-0.1300739198923111,4.939621925354004,-0.05272000696007065,0.004875641809211961,-4.2578874499099584e-05,0.0011000613310325484,2.391913414001465,-0.07617186754941939,-0.033133246004581444,-0.15468974411487577,-0.008654635399580002
107.144836546,122.9535903930664,-4.745355606079102,-0.18055926263332367,4.939621448516846,-0.05922205381651487,0.005159663424139538,-4.259938390305251e-05,0.0011044985583915383,2.3919131755828857,-0.07687377184629442,-0.03313324600458145,-0.20724992454051971,-0.009366053156554699
107.194836546,123.2005615234375,-4.746710300445557,-0.20724992454051971,4.939621448516846,-0.054357086666103095,0.0052670166492980175,-4.261145051032145e-05,0.0011067171378030245,2.3919131755828857,-0.07723997533321378,-0.03313324600458145,-0.235020026564598,-0.009778881445527077
107.244836547,123.4475326538086,-4.748204231262207,-0.235020026564598,4.9396209716796875,-0.06059463476669604,0.005517394484045535,-4.262472937455186e-05,0.0011089357172145108,2.3919131755828857,-0.07748412340879439,-0.033133246004581444,-0.26355773210525507,-0.010009133256971836
107.294836548,123.69451141357422,-4.749834060668945,-0.26355773210525507,4.939621448516846,-0.057051831040861915,0.005626201849626089,-4.2655077976405664e-05,0.0011133730131095178,2.3919131755828857,-0.0778198167681694,-0.03313324600458145,-0.293052852153778,-0.010370423085987568
107.394836549,124.18846130371094,-4.753518581390381,-0.3229592442512512,4.939621925354004,-0.059869908217999784,0.0060078687663309704,-4.2672207698046805e-05,0.0011155916610570212,2.3919131755828857,-0.07800292968749999,-0.033133246004581444,-0.35344704985618586,-0.010690462775528431
107.44483655,124.43544006347656,-4.755571365356445,-0.35344704985618586,4.939621448516846,-0.06296358245929459,0.006182989714023368,-4.2690596785632806e-05,0.0011178102404685074,2.3919131755828857,-0.07824706286191938,-0.033133246004581444,-0.38475352525711054,-0.010989938862621784
107.544836552,124.92938232421875,-4.7601141929626465,-0.4162828922271728,4.939621925354004,-0.055995553179679844,0.00616339352198958,-4.2731298606213386e-05,0.0011222474678274973,2.3919131755828857,-0.078338623046875,-0.03313324600458146,-0.4482976198196411,-0.011218316853046417
107.594836552,125.17635345458984,-4.762602806091309,-0.4482976198196411,4.939622402191162,-0.061500075268372985,0.006300710232183204,-4.277724771384328e-05,0.001126684695186487,2.391913414001465,-0.078125,-0.03313324600458146,-0.4801440238952637,-0.011090150102972984
107.694836554,125.6703109741211,-4.7679924964904785,-0.5122702121734619,4.939624309539795,-0.051778401665323485,0.006206151849783903,-4.2802109149420176e-05,0.0011289034116700074,2.3919131755828857,-0.07785034179687499,-0.033133246004581444,-0.5441936850547792,-0.011116615496575832
107.794836555,126.16425323486328,-4.7739362716674805,-0.5762994885444642,4.9396257400512695,-0.05055881077745809,0.006176673078222783,-4.2855605798308716e-05,0.0011333405704929802,2.391913414001465,-0.07754515856504438,-0.03313324600458145,-0.6081076860427855,-0.01107018906623125
107.894836557,126.65814971923828,-4.780423164367676,-0.6399112343788146,4.9396257400512695,-0.05561392677248269,0.0062207148726807215,-4.291398991540518e-05,0.001137777455171884,2.3919131755828857,-0.07714841514825822,-0.03313324600458145,-0.6712414622306822,-0.010891266167163849
107.994836558,127.15203857421875,-4.787435054779053,-0.7025157809257508,4.9396257400512695,-0.05425766145333574,0.006115479139952196,-4.2977124437015846e-05,0.0011422140657067193,2.391913414001465,-0.0767516940832138,-0.03313324600458146,-0.7333295345306396,-0.010712518356740475
108.09483656,127.89287567138672,-4.798914432525635,-0.7943833470344541,4.939627170562744,-0.04651339631483716,0.0058743131368612644,-4.3044868007768855e-05,0.001146650813313589,2.3919131755828857,-0.07641600817441939,-0.033133246004581444,-0.7943833470344541,-0.01053839735686779
108.194836561,128.13983154296875,-4.8029937744140625,-0.8245176076889037,4.939627647399902,-0.042911394033783384,0.005695908994968635,-4.311714353377738e-05,0.0011510876294564757,2.391913414001465,-0.07595824450254438,-0.03313324600458146,-0.8540047407150269,-0.010235613211989403
108.244836562,128.38677978515625,-4.807188510894775,-0.8540047407150269,4.939629077911377,-0.04725220314048136,0.0056715117501093815,-4.31549454162905e-05,0.0011533060032599106,2.391913414001465,-0.0757446214556694,-0.03313324600458145,-0.8831411004066468,-0.01015361025929451
108.344836564,129.1276092529297,-4.820484161376953,-0.9402505159378053,4.93963098526001,-0.03984312828837962,0.005435540487313428,-4.323367188874272e-05,0.00115774275086678,2.391913652420044,-0.07525631785392763,-0.03313324600458145,-0.9402505159378053,-0.009776134043931961
108.544836567,129.86843872070312,-4.834774494171143,-1.0217827558517458,4.939631938934326,-0.041107217353857944,0.005170227560875651,-4.340328996477183e-05,0.001166616109008485,2.3919131755828857,-0.07406615465879439,-0.03313324600458145,-1.0476752519607542,-0.0089776162058115
108.594836567,130.11537170410156,-4.839742183685303,-1.0476752519607542,4.939633369445801,-0.035846409509533196,0.004989543217570003,-4.3448048273830864e-05,0.0011688343457398854,2.391913414001465,-0.0738220140337944,-0.03313324600458145,-1.073071479797363,-0.008835642598569393
108.644836568,130.36228942871094,-4.84481143951416,-1.073071479797363,4.939634799957275,-0.03421142554894081,0.004758632147256109,-4.349367611666821e-05,0.0011710523083272174,2.391913414001465,-0.07348632067441939,-0.03313324600458145,-1.0977604389190674,-0.008561481721699238
108.74483657,131.10302734375,-4.860579490661621,-1.1453324556350708,4.939634323120117,-0.031792678310236855,0.004508387722496454,-4.3587506212361404e-05,0.001175488644717984,2.391913652420044,-0.0729064792394638,-0.03313324600458146,-1.1453324556350708,-0.008115998469293118
108.844836571,131.34996032714844,-4.866015434265137,-1.1682243347167969,4.939633846282959,-0.03410604089602246,0.004433699179057005,-4.368457034331641e-05,0.0011799248440367163,2.391913652420044,-0.07238768041133882,-0.03313324600458145,-1.1904861927032473,-0.007722099777311087
108.894836572,131.5968780517578,-4.871535778045654,-1.1904861927032473,4.939633846282959,-0.03102036558952692,0.004292946806105591,-4.373425895209948e-05,0.0011821429436960824,2.391913652420044,-0.0721740573644638,-0.03313324600458145,-1.2122635841369627,-0.007570181041955948
108.994836573,132.09071350097656,-4.8828277587890625,-1.2333867549896236,4.939632892608643,-0.02883447340730382,0.004067802517633778,-4.383587216238993e-05,0.0011865791430148147,2.391913414001465,-0.0716857761144638,-0.033133246004581444,-1.2540284395217893,-0.007174953818321228
109.244836577,133.32530212402344,-4.91241455078125,-1.3315412998199463,4.939633369445801,-0.02566210368590826,0.0035974885041538396,-4.410199753124289e-05,0.0011976696413116457,2.391913652420044,-0.07073973119258878,-0.033133246004581444,-1.3497856855392452,-0.006340662483125925
109.294836578,133.5722198486328,-4.918551445007324,-1.3497856855392452,4.939633369445801,-0.02704691509379879,0.003531139365008984,-4.415719472206092e-05,0.0011998877409710117,2.391913652420044,-0.07052611559629439,-0.033133246004581444,-1.3674937486648557,-0.006139966193586588
109.394836579,134.06600952148438,-4.931026935577393,-1.384811758995056,4.939632892608643,-0.02352191228424191,0.0032475142821135616,-4.4269396752838475e-05,0.0012043236661456755,2.391913414001465,-0.0701904222369194,-0.03313324600458145,-1.4016540050506594,-0.00584215996786952
109.544836581,134.80667114257812,-4.950226783752441,-1.4341876506805422,4.939633369445801,-0.02384507749227558,0.0030522228251901595,-4.444204324727252e-05,0.001210977142691568,2.391913652420044,-0.06976317614316939,-0.03313324600458145,-1.449936866760254,-0.005477226804941893
109.794836585,136.2880096435547,-4.990277290344238,-1.5245388746261597,4.939632892608643,-0.02284407190999698,0.0028141736093849623,-4.480199871181867e-05,0.0012242842328553875,2.391913414001465,-0.06936644017696382,-0.03313324600458146,-1.5245388746261597,-0.005045006051659584
109.894836587,136.53489685058594,-4.997160911560059,-1.538892984390259,4.939631938934326,-0.023261699144907572,0.0027924181098503975,-4.486383103596836e-05,0.001226502058370685,2.391913652420044,-0.0693664401769638,-0.03313324600458145,-1.553154826164246,-0.004972332157194614
109.944836587,136.7817840576172,-5.004103660583496,-1.553154826164246,4.93963098526001,-0.023548012387666087,0.0027776076100038127,-4.4926198810912865e-05,0.0012287198838859825,2.391913652420044,-0.0693969577550888,-0.03313324600458145,-1.5673532485961916,-0.0049519045278429985
110.09483659,137.52244567871094,-5.025294780731201,-1.595664381980896,4.93963098526001,-0.023923241382566757,0.00275658714545568,-4.511651904692826e-05,0.0012353733604318752,2.391913414001465,-0.0694580003619194,-0.03313324600458146,-1.6097297668457031,-0.0049039144068956375
110.194836591,138.01622009277344,-5.039719581604004,-1.623662710189819,4.939630508422852,-0.022593795541925168,0.0027084958316220265,-4.524609924771994e-05,0.0012398090114624702,2.391913414001465,-0.0693664401769638,-0.03313324600458145,-1.6374307870864868,-0.004793704021722078
110.394836594,139.25051879882812,-5.076726913452148,-1.6895480155944824,4.93963098526001,-0.017125299266868343,0.0024028453001974093,-4.551136790098553e-05,0.0012486794910914543,2.391913414001465,-0.06863401085138321,-0.033133246004581444,-1.6895480155944824,-0.0043249186128377914
110.494836596,139.74424743652344,-5.091854095458984,-1.712984561920166,4.939630508422852,-0.014000698998968672,0.002193987270670328,-4.564669654882891e-05,0.0012531145938339122,2.391913414001465,-0.06805419176816942,-0.03313324600458145,-1.712984561920166,-0.003959964029490948
110.744836599,140.73167419433594,-5.122513294219971,-1.7521138191223145,4.939631938934326,-0.004302847119322575,0.0014618048116545879,-4.59909186929508e-05,0.0012642024877620908,2.391913652420044,-0.06607054173946379,-0.03313324600458145,-1.759942054748535,-0.0026719793677330017
110.844836601,141.2253875732422,-5.137976169586182,-1.7668578624725342,4.939632415771484,-0.00040465635933413334,0.0010843128595378893,-4.613017102883532e-05,0.0012686375905045487,2.391913652420044,-0.0650634616613388,-0.033133246004581444,-1.7728062868118286,-0.002005907241255045
110.894836602,141.71910095214844,-5.153474807739258,-1.7777298688888548,4.939632415771484,-0.0028355183889475677,0.0008795982199536756,-4.619996211374655e-05,0.0012708551418757776,2.391913414001465,-0.06454466283321379,-0.033133246004581444,-1.7777298688888548,-0.0016437714220955968
110.994836603,141.96595764160156,-5.161222457885742,-1.7815202474594116,4.939632415771484,-0.007817665858281286,0.0004306986429476467,-4.633960853084318e-05,0.0012752902446182353,2.391913652420044,-0.06338498741388318,-0.03313324600458145,-1.7841775417327879,-0.0008465792634524405
111.044836604,142.2128143310547,-5.168962478637695,-1.7841775417327879,4.939631938934326,-0.010743286120417299,0.00019123767070372555,-4.640934822930376e-05,0.0012775077959894642,2.391913890838623,-0.0627746433019638,-0.03313324600458145,-1.7856419086456299,-0.0004237481625750661
111.094836605,142.4596710205078,-5.176688194274902,-1.7856419086456299,4.939631938934326,-0.013400629677387171,-5.542985876301476e-05,-4.6548429210702125e-05,0.0012819427616598876,2.391913652420044,-0.0621642954647541,-0.03313324600458145,-1.7858594655990596,1.4737675883225165e-05
111.244836607,143.2002410888672,-5.199714660644531,-1.7823419570922852,4.93963098526001,-0.018722839222056323,-0.0005746919683440738,-4.668654642614456e-05,0.0012863778644023453,2.391913890838623,-0.060882568359374986,-0.03313324600458145,-1.7823419570922852,0.0009398647234775126
111.294836608,143.4470977783203,-5.20731782913208,-1.778469800949096,4.939630508422852,-0.02284822440300887,-0.0008710672343652109,-4.67551124216925e-05,0.0012885954157735742,2.391913890838623,-0.0595703125,-0.03313324600458145,-1.7733446359634395,0.0018749488517642021
111.344836608,143.69393920898438,-5.214876651763916,-1.7733446359634395,4.939629554748535,-0.022380336587364148,-0.00109232727255075,-4.6823241504512225e-05,0.0012908128300727689,2.391913890838623,-0.058959957212209715,-0.03313324600458146,-1.7668991088867185,0.002347527304664254
111.44483661,144.18768310546875,-5.22983980178833,-1.7593142986297612,4.9396281242370605,-0.0254909315887039,-0.0015636267847576601,-4.695808611643315e-05,0.0012952482069592953,2.391913890838623,-0.05783080309629439,-0.03313324600458146,-1.7503294944763184,0.0032433446031063795
111.494836611,144.68145751953125,-5.244560241699219,-1.7401595115661623,4.939626693725586,-0.030125664895854613,-0.0020699330493340606,-4.702473310658206e-05,0.0012974660324745928,2.391913890838623,-0.057312000542879105,-0.03313324600458145,-1.7401595115661623,0.0036299454513937235
111.594836612,145.1752166748047,-5.258990287780762,-1.715713381767273,4.9396257400512695,-0.03755074391492319,-0.0026299574571042594,-4.722083178876346e-05,0.0013041192348764168,2.391913890838623,-0.056121818721294396,-0.033133246004581444,-1.715713381767273,0.004611640237271786
111.694836613,145.42210388183594,-5.266085147857666,-1.7016574144363397,4.9396257400512695,-0.036486350803939076,-0.0028251564657418293,-4.73478975635544e-05,0.0013085547488349775,2.391913890838623,-0.05508422106504441,-0.03313324600458145,-1.6863287687301636,0.00544632226228714
111.794836615,145.91586303710938,-5.280008316040039,-1.6699419021606443,4.939623832702637,-0.04566037487596978,-0.0035650960470795523,-4.7410201091224735e-05,0.001310772574350275,2.391913890838623,-0.0541076585650444,-0.033133246004581444,-1.6522339582443235,0.0062827761285007
111.894836616,146.4096221923828,-5.293542861938477,-1.6333922147750857,4.9396233558654785,-0.04450504625954146,-0.0037594436781186735,-4.7532182350096264e-05,0.0013152080883088357,2.391913890838623,-0.053070057183504105,-0.03313324600458145,-1.6132986545562742,0.007107784505933523
111.94483661699999,146.656494140625,-5.300151348114014,-1.6132986545562742,4.939622402191162,-0.04881218095364662,-0.004022647930270684,-4.7591753002507176e-05,0.001317425776752099,2.3919143676757812,-0.0526428148150444,-0.03313324600458145,-1.5921685695648193,0.007445572875440121
111.994836618,146.9033966064453,-5.306651592254639,-1.5921685695648193,4.939622402191162,-0.04753075835849925,-0.004198894186943858,-4.7707844444744296e-05,0.0013218617019267625,2.391913890838623,-0.0520629733800888,-0.033133246004581444,-1.5696866512298586,0.007952463813126087
112.094836619,147.397216796875,-5.319292068481445,-1.5462175607681277,4.939621448516846,-0.05063966223245007,-0.004647915226774657,-4.776424958663483e-05,0.0013240798015861288,2.391914129257202,-0.0512084886431694,-0.033133246004581444,-1.521698474884033,0.008637852035462856
112.194836621,147.8910369873047,-5.331442356109619,-1.4963895082473757,4.939620018005371,-0.05207988827552079,-0.0049949837280771625,-4.787367163316958e-05,0.0013285158638328268,2.3919143676757812,-0.050598137080669396,-0.03313324600458144,-1.470140695571899,0.009234398603439331
112.244836622,148.137939453125,-5.3373260498046875,-1.470140695571899,4.939619064331055,-0.05615717490529942,-0.005201330577704777,-4.7926658538699485e-05,0.0013307336893481243,2.391914129257202,-0.0504455454647541,-0.03313324600458145,-1.443357706069946,0.009378788992762566
112.294836622,148.38485717773438,-5.343085289001465,-1.443357706069946,4.939620018005371,-0.05157262061502794,-0.005259594616455143,-4.7978463186382214e-05,0.0013329517890074904,2.3919143676757812,-0.05026243999600411,-0.03313324600458146,-1.415899515151978,0.009638073854148388
112.344836623,148.6317596435547,-5.3487138748168945,-1.415899515151978,4.939620018005371,-0.051493825683652565,-0.005449528908556767,-4.807854290334035e-05,0.0013373877141821542,2.3919143676757812,-0.050231922417879105,-0.033133246004581444,-1.3880817890167232,0.009728850796818733
112.494836625,149.6194610595703,-5.369924068450928,-1.301498293876648,4.939619064331055,-0.052153225248558144,-0.0057152133348754575,-4.8173927908123915e-05,0.001341824187644955,2.3919143676757812,-0.04989622905850411,-0.03313324600458146,-1.301498293876648,0.010215303860604763
112.594836627,149.86639404296875,-5.374889850616455,-1.2717173099517822,4.939619541168213,-0.05808114081828657,-0.0058641256202188186,-4.826447256789379e-05,0.0013462606611077562,2.391914129257202,-0.04980467632412911,-0.03313324600458145,-1.2418664693832395,0.010414239950478077
112.644836628,150.1133270263672,-5.379725933074951,-1.2418664693832395,4.939619541168213,-0.056078146621188166,-0.005915624151183851,-4.830789012544301e-05,0.0013484788978391565,2.3919143676757812,-0.049774158746004105,-0.03313324600458145,-1.2117179632186892,0.010552233085036278
112.744836629,150.60720825195312,-5.388998508453369,-1.181643724441528,4.939620018005371,-0.05039953823950708,-0.005854415421187531,-4.839115283061801e-05,0.0013529153713019576,2.3919143676757812,-0.04992675036191939,-0.033133246004581444,-1.151319622993469,0.010611215606331825
112.79483663,151.10107421875,-5.397746562957764,-1.1212053298950193,4.939620018005371,-0.04874935432669025,-0.0058492195430674965,-4.843101936558014e-05,0.0013551337451053922,2.3919143676757812,-0.0501098558306694,-0.033133246004581444,-1.1212053298950193,0.010485806502401829
112.894836631,151.59495544433594,-5.405978202819824,-1.0610243082046507,4.939621448516846,-0.048535803939652906,-0.005824926978113432,-4.85071971496609e-05,0.0013595703556402276,2.3919143676757812,-0.05035399273037909,-0.033133246004581444,-1.0610243082046507,0.010440775193274021
112.994836633,151.84190368652344,-5.409903526306152,-1.0311084985733034,4.939621448516846,-0.051412574925449296,-0.005839233990372561,-4.861286255675168e-05,0.0013662252029064633,2.391913890838623,-0.050781238824129105,-0.033133246004581444,-1.0016504526138303,0.010241048410534859
113.094836634,152.33578491210938,-5.417391300201416,-0.9723044633865359,4.939623832702637,-0.05016065502094235,-0.005727794266524033,-4.864588834152528e-05,0.0013684435767098982,2.391913890838623,-0.0512084886431694,-0.033133246004581444,-0.9434570670127869,0.010024174116551876
113.244836637,153.07669067382812,-5.427725315093994,-0.8862106800079343,4.939625263214111,-0.049774783410478265,-0.005598657949573371,-4.873855331766208e-05,0.0013750991093363055,2.3919143676757812,-0.0516052171587944,-0.033133246004581444,-0.8580198287963865,0.009797025471925735
113.294836637,153.3236541748047,-5.430934429168701,-0.8580198287963865,4.939626693725586,-0.0462974509331873,-0.005442135321340302,-4.876731274805479e-05,0.0013773176202117746,2.391914129257202,-0.051727287471294396,-0.033133246004581444,-0.8300713300704956,0.009745080024003983
113.344836638,153.5706329345703,-5.434027194976807,-0.8300713300704956,4.939627170562744,-0.040733417165690386,-0.005296820838825267,-4.879504842847382e-05,0.0013795362681592782,2.391914129257202,-0.05200194194912911,-0.03313324600458146,-0.8026658296585083,0.009519757702946663
113.394836639,153.81759643554688,-5.43701171875,-0.8026658296585083,4.939627647399902,-0.044713319094789324,-0.005286590653743206,-4.882176889964285e-05,0.0013817549161067816,2.391914129257202,-0.052154533565044396,-0.033133246004581444,-0.775512397289276,0.009467553347349167
113.49483664,154.31153869628906,-5.4426469802856445,-0.748892605304718,4.939628601074219,-0.03936199187817552,-0.005144097977368034,-4.887223710170474e-05,0.0013861919378577198,2.3919143676757812,-0.052581775933504105,-0.03313324600458145,-0.7225777506828308,0.009169706143438816
113.544836641,154.5585174560547,-5.4453043937683105,-0.7225777506828308,4.939629077911377,-0.04256588511997696,-0.0051171030779050275,-4.889606194069529e-05,0.0013884105858052232,2.391914129257202,-0.0528564378619194,-0.03313324600458145,-0.6967899203300476,0.00895775482058525
113.594836642,154.80548095703125,-5.447859287261963,-0.6967899203300476,4.939629554748535,-0.0381158768253973,-0.004983514451508686,-4.891891443037366e-05,0.0013906290966806923,2.3919143676757812,-0.05303953960537911,-0.03313324600458146,-0.6713434457778932,0.008862721733748913
113.644836643,155.0524444580078,-5.450311183929443,-0.6713434457778932,4.939629554748535,-0.04054954454581025,-0.004943162623708641,-4.896191649095272e-05,0.0013950661184316305,2.3919143676757812,-0.0533142015337944,-0.03313324600458146,-0.646436333656311,0.008650344796478748
113.794836645,155.79336547851562,-5.457083225250244,-0.5981255769729615,4.939630508422852,-0.03398012242154525,-0.004598470754492684,-4.9019936511740525e-05,0.0014017217881300724,2.391913890838623,-0.05407714098691941,-0.03313324600458145,-0.5747373104095459,0.008135203272104263
113.894836646,156.2873077392578,-5.461136341094971,-0.5519749522209166,4.939632415771484,-0.03196329672561665,-0.0043861429274561214,-4.903764020980361e-05,0.0014039404360775757,2.391914129257202,-0.054595939815044396,-0.033133246004581444,-0.5296363830566405,0.007771923206746578
113.944836647,156.78125,-5.464840412139893,-0.5078365802764893,4.939633369445801,-0.034212938389175815,-0.004329205308265249,-4.905458146708952e-05,0.0014061590840250791,2.391914129257202,-0.05484008044004441,-0.03313324600458146,-0.5078365802764893,0.007567253429442644
114.044836649,157.02821350097656,-5.466564655303955,-0.48644706606864924,4.939633369445801,-0.03258670548935332,-0.004143132225492507,-4.9086180851531935e-05,0.0014105962428480519,2.391913890838623,-0.055145263671875,-0.03313324600458145,-0.4653998911380769,0.007322508841753006
114.094836649,157.2751922607422,-5.468204975128174,-0.4653998911380769,4.939632415771484,-0.029209058727258652,-0.003954538575763583,-4.910086897780275e-05,0.001412814753723521,2.391914129257202,-0.055358882993459695,-0.033133246004581444,-0.44488725066185,0.007118052337318659
114.194836651,157.76913452148438,-5.471248149871826,-0.42480218410491943,4.939631462097168,-0.03024519915884382,-0.003886655648442705,-4.912806491574884e-05,0.0014172519125464935,2.391913890838623,-0.05575560778379439,-0.033133246004581444,-0.40521427989006037,0.006799456663429737
114.244836651,158.01609802246094,-5.472654342651367,-0.40521427989006037,4.939631462097168,-0.029086367259994715,-0.003717859016870023,-4.914062415650733e-05,0.0014194705604939969,2.391913890838623,-0.055908199399709695,-0.03313324600458146,-0.3860095739364624,0.0066786864772439
114.394836654,158.75701904296875,-5.476424217224121,-0.34886407852172846,4.939632415771484,-0.02807409919931637,-0.003563235703112344,-4.9174318164091346e-05,0.0014261262301924387,2.391913890838623,-0.05639647692441941,-0.033133246004581444,-0.330870509147644,0.0062499381601810455
114.444836654,159.00399780273438,-5.477537631988525,-0.330870509147644,4.939632892608643,-0.027188818981973537,-0.003425332444102147,-4.9184264454993354e-05,0.0014283447410679078,2.391914129257202,-0.05651854351162908,-0.033133246004581444,-0.31318956613540655,0.006151372566819191
114.594836657,159.74490356445312,-5.480460166931152,-0.2788126468658447,4.939633369445801,-0.026537883855491228,-0.0033057797431452485,-4.9210406672273166e-05,0.0014350005478383837,2.391913890838623,-0.05682372301816942,-0.03313324600458145,-0.26202595233917236,0.005840039812028408
114.694836658,160.2388458251953,-5.4820685386657715,-0.2454538196325302,4.939634323120117,-0.026243735493400783,-0.003215445251811555,-4.9224799226976756e-05,0.0014394377066613564,2.391913890838623,-0.0569457858800888,-0.033133246004581444,-0.22910401225090024,0.005690630059689283
114.744836659,160.48580932617188,-5.482771396636963,-0.22910401225090024,4.939632415771484,-0.025659844441494745,-0.0031697755141541772,-4.9231095971435934e-05,0.0014416562175368255,2.391913890838623,-0.05697631463408468,-0.03313324600458145,-0.21291206777095792,0.005641991272568703
114.79483666,160.7327880859375,-5.483407974243164,-0.21291206777095792,4.939631462097168,-0.026102226977951674,-0.0031193135418155216,-4.92368058928605e-05,0.001443874865484329,2.391913890838623,-0.0570068284869194,-0.03313324600458146,-0.1968578547239304,0.005594071466475725
114.944836662,161.4737091064453,-5.484916687011719,-0.16497458517551425,4.93963098526001,-0.02711876216244098,-0.0030972676124353116,-4.9250371731091036e-05,0.001450530672254805,2.391914129257202,-0.056945793330669424,-0.03313324600458145,-0.14908157289028168,0.00554635189473629
115.044836663,161.9676513671875,-5.485583305358887,-0.13322685658931727,4.93963098526001,-0.02611367870321447,-0.0030640411295946857,-4.925639004227378e-05,0.0014549676940057432,2.391914129257202,-0.056915275752544396,-0.033133246004581444,-0.11746764183044431,0.005493140313774347
115.194836666,162.7085723876953,-5.486091136932373,-0.08644333481788635,4.939630031585693,-0.024177522396043857,-0.0029842733351034822,-4.926090485923851e-05,0.001461623500776219,2.391914129257202,-0.05722045525908471,-0.033133246004581444,-0.07129868119955061,0.00526748551055789
115.244836666,162.95553588867188,-5.486136436462402,-0.07129868119955061,4.9396281242370605,-0.021705952365568576,-0.0028558948096403802,-4.926125181725638e-05,0.0014638421487237227,2.391913890838623,-0.05740354955196381,-0.03313324600458146,-0.05650027468800544,0.005139105021953583
115.49483667,164.1904296875,-5.4855475425720215,-0.0018842705758288505,4.939627647399902,-0.015263906054407592,-0.002446693095483232,-4.9255473371090375e-05,0.0014749352513892056,2.391913890838623,-0.0589294359087944,-0.033133246004581444,0.01025390625,0.0041942656971514225
115.594836672,164.6843719482422,-5.48499870300293,0.02163696102797985,4.93963098526001,-0.009580142826408757,-0.0020016373759739747,-4.9250247499799116e-05,0.001479372410212178,2.391913890838623,-0.059783920645713785,-0.033133246004581444,0.032226562499999986,0.0036416181828826666
115.644836672,164.9313507080078,-5.484673976898193,0.032226562499999986,4.939631462097168,-0.006847445214779443,-0.0018188179039499985,-4.92471719724108e-05,0.0014815910581596815,2.391913890838623,-0.06027220562100411,-0.03313324600458145,0.04193115234375,0.0033227032981812954
115.794836675,165.67225646972656,-5.483561992645264,0.0584716647863388,4.939632892608643,-0.0024275319526471523,-0.001434656874721496,-4.9236617414294415e-05,0.0014882467278581233,2.391913890838623,-0.061859119683504105,-0.03313324600458145,0.0651855394244194,0.002262519672513008
115.844836675,165.9192352294922,-5.483161926269531,0.0651855394244194,4.939632892608643,-0.00028225953226592815,-0.0012194509192047787,-4.923281794333434e-05,0.0014904653758056267,2.391913652420044,-0.0624389573931694,-0.03313324600458146,0.0708007663488388,0.0018773454939946532
115.894836676,166.1662139892578,-5.482757568359375,0.0708007663488388,4.939632892608643,-0.0024427351435000024,-0.001003532685202757,-4.922897137760174e-05,0.00149268402375313,2.391913652420044,-0.06304929405450821,-0.03313324600458145,0.0752258151769638,0.0014611997175961733
116.044836678,167.1540985107422,-5.48120641708374,0.08117675036191939,4.939631938934326,-0.012348070064060676,-4.453703281373511e-05,-4.9214107605166646e-05,0.0015015583413990753,2.391913652420044,-0.06491088122129439,-0.03313324600458145,0.08117675036191939,0.00016957773186732084
116.14483668,167.64804077148438,-5.480556964874268,0.0786742940545082,4.939631462097168,-0.015604976233108732,0.00021945146525839676,-4.920778944494941e-05,0.0015059955002220478,2.391913652420044,-0.0661926120519638,-0.03313324600458145,0.0786742940545082,-0.0007645803270861506
116.294836682,168.14198303222656,-5.480053424835205,0.07098387181758878,4.93963098526001,-0.024149976731599836,0.001236765203087964,-4.920279488374035e-05,0.0015104326590450203,2.391913652420044,-0.0680236741900444,-0.03313324600458145,0.0651550143957138,-0.0021212822757661343
116.394836684,168.6359405517578,-5.479743003845215,0.05792234838008881,4.939630508422852,-0.02859215998177038,0.0017637633852274626,-4.9199543710187754e-05,0.0015148699549400273,2.391913414001465,-0.0692443773150444,-0.03313324600458146,0.04937743768095971,-0.0030663993675261736
116.494836685,169.1298828125,-5.479677200317383,0.039337150752544396,4.939629554748535,-0.03422363116932237,0.0020821416277329308,-4.919890118060266e-05,0.001521525624638469,2.391913414001465,-0.07049559056758882,-0.03313324600458145,0.028045644983649254,-0.00403226912021637
116.594836687,169.6238250732422,-5.4799017906188965,0.01528930570930242,4.939626693725586,-0.036400494252264846,0.0028016307948757757,-4.920003202357748e-05,0.0015237442725859725,2.391913414001465,-0.07165525853633882,-0.03313324600458145,0.0013732910156249998,-0.004933553282171488
116.644836687,169.8708038330078,-5.480134010314941,0.0013732910156249998,4.9396257400512695,-0.04179354464801968,0.003092404263688009,-4.920191676660579e-05,0.001525962920533476,2.391913414001465,-0.07223509252071379,-0.033133246004581444,-0.013887916691601273,-0.0054296511225402355
116.744836689,170.36474609375,-5.480866432189941,-0.0302091483026743,4.939625263214111,-0.04487039944707607,0.003539806178463556,-4.921248415712398e-05,0.0015326185902319175,2.391913414001465,-0.07318115234375,-0.03313324600458145,-0.047794140875339515,-0.0062350318767130375
116.894836691,171.1056671142578,-5.482698440551758,-0.08636856824159622,4.939625263214111,-0.045147174494082204,0.004133017529653671,-4.9224002509618e-05,0.0015370558861269245,2.3919131755828857,-0.0744934007525444,-0.03313324600458145,-0.10722276568412782,-0.007334709633141756
116.944836692,171.35263061523438,-5.4835205078125,-0.10722276568412782,4.939624786376953,-0.05119159788393679,0.004390781555754786,-4.923948735324757e-05,0.001541493044949897,2.3919131755828857,-0.07495114952325818,-0.033133246004581444,-0.12920986115932465,-0.00776353944092989
117.044836693,171.84657287597656,-5.485512733459473,-0.15230406820774076,4.939623832702637,-0.04831536892081024,0.00469090737761807,-4.925920431730901e-05,0.0015459302037728695,2.391913414001465,-0.0756530612707138,-0.03313324600458146,-0.17608597874641424,-0.008343827910721302
117.144836695,172.3405303955078,-5.487973690032959,-0.2007013261318207,4.939622402191162,-0.05005288471141639,0.00497224713888772,-4.927068837901061e-05,0.0015481489887924074,2.391913414001465,-0.0761108249425888,-0.03313324600458146,-0.2259384244680404,-0.008849183097481728
117.344836698,173.3284149169922,-5.494389057159424,-0.3065055012702942,4.939622402191162,-0.05215196055173316,0.005505124178637355,-4.9327920251585056e-05,0.0015570233064383524,2.3919131755828857,-0.07705687731504439,-0.03313324600458146,-0.3345859348773956,-0.009820764884352684
117.444836699,174.0693359375,-5.500574111938477,-0.39224034547805775,4.939622402191162,-0.0515476708798469,0.005656584054281988,-4.9363653189971046e-05,0.0015614606023333594,2.3919131755828857,-0.07727050781249997,-0.033133246004581444,-0.39224034547805775,-0.010104442946612835
117.544836701,174.31629943847656,-5.502902030944824,-0.42162999510765065,4.9396233558654785,-0.049275024424286024,0.0057138587541458175,-4.940420939192336e-05,0.0015658977611563319,2.391913414001465,-0.0772094577550888,-0.03313324600458145,-0.4509689807891846,-0.010226303711533546
117.69483670299999,175.05722045898438,-5.510655403137207,-0.5101494193077089,4.939626216888428,-0.052837693070502206,0.005799159222973749,-4.9473957631107623e-05,0.001572553567926808,2.3919131755828857,-0.07699583470821382,-0.03313324600458146,-0.5397657155990601,-0.010351681150496006
117.994836707,176.53907775878906,-5.5295939445495605,-0.6869370341300961,4.939627647399902,-0.051278939574209495,0.005741103406208703,-4.964423966669074e-05,0.0015858654556118285,2.3919131755828857,-0.0762329027056694,-0.03313324600458145,-0.7157509326934814,-0.01000677328556776
118.044836708,177.03302001953125,-5.5368876457214355,-0.7443458437919616,4.9396281242370605,-0.04789588050694844,0.005577042686977007,-4.970993570907467e-05,0.0015903026144348013,2.391913414001465,-0.07604978233575818,-0.033133246004581444,-0.7443458437919616,-0.009974906221032143
118.14483671,177.28001403808594,-5.540705680847168,-0.7723855972290038,4.939629077911377,-0.04859247227359149,0.005475516263932334,-4.9779756764678496e-05,0.001594739910329808,2.391913414001465,-0.0756225436925888,-0.033133246004581444,-0.8003778457641602,-0.009779492393136024
118.19483671,177.77395629882812,-5.548693656921387,-0.8279621005058287,4.939629554748535,-0.041996830968793766,0.0053438733183824305,-4.981620935495812e-05,0.0015969585582773114,2.391913414001465,-0.07540892064571379,-0.03313324600458145,-0.8279621005058287,-0.009589610621333122
118.344836713,178.26779174804688,-5.557125568389893,-0.8820944428443909,4.939630031585693,-0.038747468816475214,0.005167662334286005,-4.989210873418415e-05,0.0016013946205240095,2.391913414001465,-0.07479856163263322,-0.03313324600458145,-0.9085631370544431,-0.009226612746715546
118.394836713,178.51470947265625,-5.561502933502197,-0.9085631370544431,4.939631462097168,-0.0384394561704233,0.005020361209222501,-4.9931491233223824e-05,0.0016036127201833757,2.391913414001465,-0.07452392578125,-0.03313324600458145,-0.9345167875289918,-0.009016117081046104
118.494836715,179.008544921875,-5.570572376251221,-0.96025013923645,4.939631462097168,-0.04247420018889124,0.005015327471173003,-5.001310049124186e-05,0.0016080491936461766,2.391913414001465,-0.0741271823644638,-0.03313324600458145,-0.9853926301002504,-0.00872518215328455
118.794836719,180.49005126953125,-5.600141525268555,-1.1047662496566775,4.939633369445801,-0.031306495901168054,0.004398886852544026,-5.032646430436216e-05,0.00162357589126174,2.391913414001465,-0.07278440892696379,-0.033133246004581444,-1.1271475553512573,-0.007784806191921234
118.894836721,180.98388671875,-5.610722064971924,-1.1488507986068723,4.939633369445801,-0.029484588633067844,0.004177731494263676,-5.03744652178284e-05,0.001625793990921106,2.391913652420044,-0.0722045823931694,-0.03313324600458146,-1.1700748205184934,-0.007379219867289066
118.994836722,181.4777374267578,-5.621626853942871,-1.1906501054763796,4.939632415771484,-0.027878164060046076,0.003960817947793571,-5.0472625929387505e-05,0.0016302301902398383,2.391913414001465,-0.0716857835650444,-0.03313324600458145,-1.21075701713562,-0.006989398971199989
119.044836723,181.72463989257812,-5.627197265625,-1.21075701713562,4.939632892608643,-0.026477531166171363,0.003753746019148768,-5.057353665449682e-05,0.0016346663895585706,2.391913414001465,-0.0714111179113388,-0.03313324600458145,-1.2302531003952026,-0.006757673807442188
119.194836725,182.46539306640625,-5.644345760345459,-1.2677692174911495,4.939633369445801,-0.02503170037944034,0.003554783654137167,-5.0677038871072e-05,0.001639102588877303,2.3919131755828857,-0.0708007663488388,-0.03313324600458145,-1.2857936620712278,-0.006263618357479572
119.294836727,182.959228515625,-5.656126499176025,-1.3033013343811035,4.939634799957275,-0.024210953999242966,0.003374429849010402,-5.078301271055352e-05,0.0016435387881960353,2.391913414001465,-0.07043456286191939,-0.03313324600458146,-1.320411086082458,-0.005946475081145763
119.644836732,184.68765258789062,-5.6993608474731445,-1.4146442413330076,4.939630508422852,-0.02207471834160699,0.0028168796418253372,-5.117173613200521e-05,0.0016590656228836328,2.391913652420044,-0.06951902806758879,-0.033133246004581444,-1.4291781187057493,-0.005054752342402935
119.794836734,185.4283905029297,-5.718771934509277,-1.4574066400527954,4.939631462097168,-0.021649163708185953,0.002715748897444026,-5.134619028979159e-05,0.001665719784789697,2.391913652420044,-0.06927489489316938,-0.033133246004581444,-1.4847462177276614,-0.00472813006490469
119.994836737,186.41607666015625,-5.74542760848999,-1.5114488601684566,4.939632415771484,-0.021719429571262,0.0025877623527128524,-5.158567655882962e-05,0.001674592320499196,2.391913414001465,-0.0692443773150444,-0.03313324600458146,-1.5246508121490476,-0.0046019102446734905
120.044836738,186.66294860839844,-5.752229690551758,-1.5246508121490476,4.939632415771484,-0.021688084208414823,0.0025701684483220577,-5.1708356025415014e-05,0.001679027560313688,2.391913652420044,-0.0692748799920082,-0.03313324600458145,-1.5378021001815796,-0.0045878090895712376
120.094836739,186.90980529785156,-5.7590861320495605,-1.5378021001815796,4.939631462097168,-0.022420752661892772,0.0025629364322636017,-5.177045393622848e-05,0.0016812451116849168,2.391913414001465,-0.0693054050207138,-0.033133246004581444,-1.550935506820679,-0.004583448637276888
120.144836739,187.4035186767578,-5.7729692459106445,-1.564034938812256,4.939631462097168,-0.022172304760979696,0.002554282419340914,-5.183304445210979e-05,0.0016834626630561457,2.391913652420044,-0.0693359300494194,-0.03313324600458145,-1.564034938812256,-0.0045697810128331184
120.294836742,187.89724731445312,-5.787071228027344,-1.5899653434753418,4.939632415771484,-0.020358509667320522,0.0024776649779746085,-5.195972899230128e-05,0.001687897902870638,2.391913652420044,-0.0692443773150444,-0.033133246004581444,-1.6027225255966189,-0.00444129528477788
120.344836742,188.14410400390625,-5.794201374053955,-1.6027225255966189,4.939632892608643,-0.01913006310934437,0.002426890672657972,-5.208834967618259e-05,0.0016923330056130956,2.391913652420044,-0.0691223070025444,-0.03313324600458146,-1.6152524948120117,-0.004356197081506252
120.444836744,188.63780212402344,-5.808609962463379,-1.627523183822632,4.939633369445801,-0.01841126599239937,0.0023749859381478056,-5.215333466423999e-05,0.0016945505569843245,2.391913652420044,-0.06878662109375,-0.033133246004581444,-1.6394667625427246,-0.00414423830807209
120.544836745,189.1315155029297,-5.823203086853027,-1.6510367393493652,4.939633846282959,-0.01588643411123436,0.0022285165632005277,-5.2284568297977785e-05,0.001698985522654748,2.391913414001465,-0.0683288499712944,-0.033133246004581444,-1.6621648073196411,-0.0038513890467584133
